city,latitude,longitude,name,province
Thibodaux,29.814697,-90.814742,Sonic,LA
Thibodaux,29.814697,-90.814742,Sonic,LA
Pigeon Forge,35.803788,-83.580553,Taco Bell,TN
Pigeon Forge,35.782339,-83.551408,Arbys,TN
Detroit,42.416819,-83.180444,Burger King,MI
Monahans,31.580721,-102.891455,Dairy Queen,TX
Mabank,32.36602,-96.103364,Dairy Queen,TX
Missouri City,29.570079,-95.568166,Dairy Queen,TX
Schenectady,42.79792,-73.924364,Mcdonalds,NY
Kingston,41.967079,-73.988583,Mcdonalds,NY
New York,40.757558,-73.981671,Mcdonalds,NY
New York,40.718943,-73.988306,Mcdonalds,NY
Uniondale,40.709646,-73.591453,Mcdonalds,NY
Jericho,40.780233,-73.55934,Mcdonalds,NY
Jericho,40.780233,-73.55934,Mcdonalds,NY
Albany,42.716812,-73.809319,Mcdonalds,NY
Bronx,40.839569,-73.915927,Mcdonalds,NY
Schenectady,42.741061,-73.913673,Mcdonalds,NY
Buffalo,42.857899,-78.825089,Mcdonalds,NY
Tonawanda,43.021019,-78.878167,Mcdonalds,NY
Woburn,42.503903,-71.132748,Mcdonalds,MA
Whitinsville,42.125526,-71.645913,Mcdonalds,MA
Wilmington,42.557448,-71.181499,Mcdonalds,MA
Webster,42.055826,-71.873999,Mcdonalds,MA
Waltham,42.376247,-71.241667,Mcdonalds,MA
Townsend,42.650503,-71.662674,Mcdonalds,MA
Walpole,42.157222,-71.243549,Mcdonalds,MA
Taunton,41.88896,-71.120789,Mcdonalds,MA
Springfield,42.12193,-72.584242,Mcdonalds,MA
Springfield,42.091561,-72.579647,Mcdonalds,MA
Springfield,42.111552,-72.603359,Mcdonalds,MA
Springfield,42.095053,-72.512539,Mcdonalds,MA
Springfield,42.142989,-72.48923,Mcdonalds,MA
Spencer,42.23341,-72.012516,Mcdonalds,MA
Spencer,42.23341,-72.012516,Mcdonalds,MA
Wylie,33.007329,-96.554127,Taco Bell,TX
Tyler,32.274786,-95.306757,Taco Bell,TX
Columbia,38.964944,-92.336364,Burger King,MO
Danvers,42.547923,-70.942014,Burger King,MA
Ravenna,41.157059,-81.219054,Mcdonalds,OH
El Cajon,32.739923,-116.942156,Burger King,CA
El Cajon,32.805945,-116.971542,Burger King,CA
Encinitas,33.051949,-117.260994,Burger King,CA
Cypress,29.88081,-95.683922,Burger King,TX
Cypress,29.88081,-95.683922,Burger King,TX
Chula Vista,32.646857,-116.967527,Arbys,CA
Chico,39.76117,-121.842187,Burger King,CA
Capitola,36.975287,-121.963929,Mcdonalds,CA
Bishop,37.365314,-118.39508,Mcdonalds,CA
Americus,32.07128,-84.216974,Mcdonalds,GA
Anderson,34.54701,-82.6319,Burger King,SC
Cedartown,34.017911,-85.253614,Mcdonalds,GA
Glastonbury,41.726353,-72.617608,Burger King,CT
Campbellsville,37.346447,-85.337368,Mcdonalds,KY
Campbellsville,37.357213,-85.323654,Subway,KY
Fairfield,38.259527,-122.062146,Burger King,CA
Ashland,38.3887,-82.7156,Dairy Queen,KY
Brooksville,28.534187,-82.516103,Arbys,FL
Hobe Sound,27.06168,-80.13746,Mcdonalds,FL
Hialeah,25.867613,-80.266376,Burger King,FL
Haines City,28.125757,-81.64043,Dairy Queen,FL
DeFuniak Springs,30.68782,-86.12318,Mcdonalds,FL
DeFuniak Springs,30.70032,-86.12317,Sonic,FL
Estero,26.432003,-81.789408,Arbys,FL
Brandon,27.928097,-82.324836,Chick Fil-A,FL
Belle Glade,26.67511,-80.67,Taco Bell,FL
Avon Park,27.596742,-81.494029,Mcdonalds,FL
Savannah,32.135603,-81.208243,Burger King,GA
Arkansas City,37.08012,-97.03938,Sonic,KS
Dodge City,37.77885,-100.01663,Mcdonalds,KS
Ankeny,41.704627,-93.580975,Burger King,IA
Ankeny,41.704627,-93.580975,Burger King,IA
Ames,42.02045,-93.60967,Chick Fil-A,IA
Ames,42.03511,-93.57344,Burger King,IA
Ankeny,41.732374,-93.582329,Burger King,IA
Burlington,36.09503,-79.408,Burger King,NC
Bettendorf,41.548648,-90.504798,Dairy Queen,IA
Charlotte,35.16361,-80.96889,Mcdonalds,NC
Hesperia,34.425812,-117.378018,Burger King,CA
Hesperia,34.419638,-117.291579,Burger King,CA
Dover,39.158375,-75.550267,Arbys,DE
Dover,39.158375,-75.550267,Arbys,DE
Fountain Inn,34.68534,-82.19727,Mcdonalds,SC
Lebanon,40.33873,-76.447826,Burger King,PA
Claymont,39.81718,-75.45715,Taco Bell,DE
Plover,44.49541,-89.51668,Mcdonalds,WI
Aurora,39.697205,-104.824323,Arbys,CO
Clarksville,36.594351,-87.287425,Arbys,TN
Alliance,40.90199,-81.12966,Dairy Queen,OH
Bryant,34.623419,-92.499052,Burger King,AR
Flagstaff,35.192109,-111.624197,Burger King,AZ
Brookings,44.31095,-96.77414,Arbys,SD
Brookings,44.31095,-96.77414,Arbys,SD
Bluefield,37.28415,-81.25128,Burger King,WV
Buckhannon,38.997749,-80.233242,Burger King,WV
Cody,44.51606,-109.08971,Arbys,WY
Cody,44.51459,-109.05084,Burger King,WY
Collierville,35.04561,-89.6942,Arbys,TN
Casper,42.82804,-106.354802,Arbys,WY
Cordova,35.175914,-89.792333,Arbys,TN
Mobridge,45.53751,-100.43688,Subway,SD
Defiance,41.303027,-84.361279,Arbys,OH
Aberdeen,45.459587,-98.469823,Arbys,SD
Blountville,36.524041,-82.312707,Mcdonalds,TN
Blountville,36.534114,-82.390053,Mcdonalds,TN
Blountville,36.541865,-82.33235,Arbys,TN
Blountville,36.541865,-82.33235,Arbys,TN
Berea,37.568606,-84.311046,Burger King,KY
East Liverpool,40.62539,-80.59109,Dairy Queen,OH
Circleville,39.58426871,-82.95390414,Burger King,OH
Chardon,41.580901,-81.210168,Burger King,OH
Bellefontaine,40.331939,-83.761451,Burger King,OH
Broadview Heights,41.29553,-81.67674,Burger King,OH
Broadview Heights,41.293022,-81.68467,Burger King,OH
Christiansburg,37.16537,-80.422283,Burger King,VA
Christiansburg,37.166086,-80.422225,Arbys,VA
Christiansburg,37.16537,-80.422283,Burger King,VA
Farmville,37.289041,-78.397491,Burger King,VA
El Paso,31.88498,-106.418612,Arbys,TX
Denison,33.762134,-96.581587,Burger King,TX
Penitas,26.243395,-98.4423,Mcdonalds,TX
Eagle Pass,28.70574,-100.48395,Burger King,TX
Del Rio,29.38843,-100.90521,Chick Fil-A,TX
Bryan,30.69488984,-96.36236943,Burger King,TX
Burleson,32.563248,-97.322393,Arbys,TX
Burleson,32.566362,-97.319315,Chick Fil-A,TX
Bellaire,29.70529415,-95.4730184,Burger King,TX
Abilene,32.405234,-99.764985,Arbys,TX
Pettus,28.847141,-97.44154,Dairy Queen,TX
Flourtown,40.111177,-75.214144,Mcdonalds,PA
Chestertown,39.224652,-76.06993,Arbys,MD
Chestertown,39.224652,-76.06993,Arbys,MD
Orlando,28.44004,-81.4037,Arbys,FL
Columbia,39.196116,-76.82101,Mcdonalds,MD
Elkridge,39.208926,-76.724769,Burger King,MD
Fairless Hills,40.169035,-74.849233,Arbys,PA
Fairless Hills,40.169035,-74.849233,Arbys,PA
Ephrata,40.164651,-76.154297,Arbys,PA
Abingdon,36.705143,-81.974501,Arbys,VA
Abingdon,36.705143,-81.974501,Arbys,VA
Ebensburg,40.47425,-78.74575,Burger King,PA
Erie,42.092031,-80.084087,Arbys,PA
Erie,42.108355,-80.050799,Arbys,PA
Florence,39.019712,-84.628729,Burger King,KY
Coopersburg,40.509286,-75.385827,Burger King,PA
Berwick,41.049741,-76.252443,Burger King,PA
Frankfort,38.178962,-84.894596,Burger King,KY
Crawfordsville,40.021575,-86.903344,Arbys,IN
Gaffney,35.077732,-81.703527,Arbys,SC
Elko,40.83757,-115.78954,Burger King,NV
Coram,40.869655,-72.999817,Mcdonalds,NY
Brookhaven,31.579563,-90.459029,Burger King,MS
Amityville,40.689896,-73.408119,Burger King,NY
Pickens,34.884512,-82.70476,Mcdonalds,SC
Spartanburg,34.966901,-81.929552,Mcdonalds,SC
Gambrills,39.037925,-76.678372,Burger King,MD
Red Springs,34.811406,-79.174756,Mcdonalds,NC
Van,32.499851,-95.596225,Dairy Queen,TX
Van,32.499851,-95.596225,Dairy Queen,TX
Tivoli,28.453429,-96.888108,Dairy Queen,TX
Rusk,31.802884,-95.148673,Dairy Queen,TX
Borger,35.663865,-101.389964,Dairy Queen,TX
San Marcos,29.689434,-97.667085,Dairy Queen,TX
San Antonio,29.42306,-98.484173,Dairy Queen,TX
San Antonio,29.351346,-98.458339,Dairy Queen,TX
Utica,42.62877,-82.993912,Taco Bell,MI
Ann Arbor,42.230907,-83.739813,Taco Bell,MI
Bakersfield,35.398432,-119.109364,Taco Bell,CA
Portage,41.575923,-87.173196,Dairy Queen,IN
Evansville,38.040812,-87.540047,Dairy Queen,IN
Indianapolis,39.760374,-86.101163,Dairy Queen,IN
Mishawaka,41.66294,-86.12615,Dairy Queen,IN
Evansville,37.977571,-87.634586,Dairy Queen,IN
North Manchester,41.016468,-85.759674,Dairy Queen,IN
New Albany,38.346607,-85.797911,Dairy Queen,IN
Wayne,42.283657,-83.363898,Taco Bell,MI
Mattoon,39.481538,-88.364454,Dairy Queen,IL
Chicago,41.953301,-87.767849,Dairy Queen,IL
El Paso,40.737017,-89.026139,Dairy Queen,IL
Mahomet,40.191908,-88.401881,Dairy Queen,IL
Cambridge,42.389162,-71.11789,Mcdonalds,MA
Boston,42.338242,-71.106394,Mcdonalds,MA
Lincoln Park,42.25059,-83.195322,Taco Bell,MI
Massillon,40.80019,-81.511421,Taco Bell,OH
Kings Mountain,35.231412,-81.332652,Taco Bell,NC
Pekin,40.566695,-89.653915,Dairy Queen,IL
Peoria,40.738856,-89.602672,Dairy Queen,IL
Petersburg,40.008448,-89.848308,Dairy Queen,IL
Decatur,39.819918,-88.883699,Dairy Queen,IL
Cary,42.219047,-88.258381,Dairy Queen,IL
Monmouth,40.914208,-90.648196,Dairy Queen,IL
Marion,37.740923,-88.925396,Dairy Queen,IL
Marion,37.740923,-88.925396,Dairy Queen,IL
Lafayette,30.252668,-92.037149,Mcdonalds,LA
Montrose,43.176212,-83.887437,Mcdonalds,MI
Cartersville,34.203844,-84.809281,Subway,GA
Bowdon,33.538661,-85.251916,Subway,GA
Macon,32.856549,-83.616455,Dairy Queen,GA
Gainesville,34.228802,-83.864934,Dairy Queen,GA
Warner Robins,32.618255,-83.618517,Dairy Queen,GA
Albany,31.499616,-84.115596,Subway,GA
Albany,31.620486,-84.220416,Subway,GA
Barnesville,33.054774,-84.15625,Dairy Queen,GA
North Augusta,33.572772,-81.938715,Dairy Queen,SC
North Augusta,33.572772,-81.938715,Dairy Queen,SC
Atlanta,33.86021,-84.309952,Dairy Queen,GA
Atlanta,33.880324,-84.275398,Dairy Queen,GA
Jonesboro,33.532392,-84.355959,Dairy Queen,GA
Atlanta,33.771188,-84.373631,Dairy Queen,GA
Bangor,44.83564,-68.742387,Burger King,ME
Asheboro,35.6876,-79.82614,Burger King,NC
Saint Louis,38.615623,-90.221252,Subway,MO
Florissant,38.8067,-90.297975,Arbys,MO
Fairborn,39.779771,-84.050756,Dairy Queen,OH
Akron,41.108993,-81.507567,Dairy Queen,OH
New Philadelphia,40.492212,-81.444822,Dairy Queen,OH
Cambridge,40.00481,-81.575932,Dairy Queen,OH
Florence,34.18876,-79.82402,Arbys,SC
Florence,34.166512,-79.763886,Arbys,SC
Derry,42.900371,-71.33503,Burger King,NH
Rutland,43.618244,-72.957313,Mcdonalds,VT
Layton,41.077026,-111.973568,Mcdonalds,UT
Enosburg Falls,44.913112,-72.796661,Mcdonalds,VT
South Burlington,44.464892999999996,-73.184211,Mcdonalds,VT
South Burlington,44.464892999999996,-73.184211,Mcdonalds,VT
South Burlington,44.437629,-73.210838,Mcdonalds,VT
Essex Junction,44.507366,-73.086501,Mcdonalds,VT
Colchester,44.503345,-73.1809,Mcdonalds,VT
Salt Lake City,40.771496,-111.917532,Mcdonalds,UT
Ogden,41.178295,-112.000468,Mcdonalds,UT
Provo,40.250567,-111.662228,Mcdonalds,UT
Veradale,47.664944,-117.197199,Mcdonalds,WA
Brigham City,41.491076,-112.016097,Mcdonalds,UT
Yelm,46.944589,-122.612408,Mcdonalds,WA
Yelm,46.944589,-122.612408,Mcdonalds,WA
Clarksburg,39.21248,-80.37987,Dairy Queen,WV
Yakima,46.603108,-120.481796,Mcdonalds,WA
Yakima,46.600036,-120.586846,Mcdonalds,WA
Yakima,46.600036,-120.586846,Mcdonalds,WA
Walla Walla,46.056214,-118.346068,Mcdonalds,WA
Woodland,45.910773,-122.746105,Mcdonalds,WA
Davison,43.017622,-83.517572,Burger King,MI
Belvidere,42.269137,-88.853432,Mcdonalds,IL
Breese,38.619582,-89.530023,Mcdonalds,IL
Braidwood,41.265585,-88.208353,Mcdonalds,IL
Bolingbrook,41.698519,-88.068207,Mcdonalds,IL
Bradley,41.160051,-87.851081,Mcdonalds,IL
Bourbonnais,41.159303,-87.886347,Mcdonalds,IL
Berwyn,41.850214,-87.783733,Mcdonalds,IL
Berwyn,41.849966,-87.802979,Mcdonalds,IL
Belvidere,42.240066,-88.841255,Mcdonalds,IL
Belleville,38.545182,-90.052155,Mcdonalds,IL
Aurora,41.778876,-88.315713,Mcdonalds,IL
Aurora,41.759701,-88.208402,Mcdonalds,IL
Alpena,45.044076,-83.456928,Arbys,MI
Alpena,45.05034,-83.445,Dairy Queen,MI
Aledo,41.199464,-90.733615,Mcdonalds,IL
Algonquin,42.163979,-88.285165,Mcdonalds,IL
Algonquin,42.173932,-88.335286,Mcdonalds,IL
Nampa,43.587291,-116.575061,Mcdonalds,ID
Baton Rouge,30.39099,-91.06156,Arbys,LA
Eagle,43.693428,-116.353552,Mcdonalds,ID
Emmett,43.863452,-116.500085,Mcdonalds,ID
Belle Vernon,40.174915,-79.806673,Subway,PA
Aliquippa,40.588694,-80.260898,Subway,PA
Wendell,35.792697,-78.37903,Mcdonalds,NC
Lumberton,34.62292,-79.047438,Mcdonalds,NC
Jackson,32.385437,-90.147307,Mcdonalds,MS
Biloxi,30.446349,-88.934148,Mcdonalds,MS
Biloxi,30.446349,-88.934148,Mcdonalds,MS
Charlotte,35.108263,-80.881511,Mcdonalds,NC
Columbus,33.493277,-88.363825,Mcdonalds,MS
High Point,35.989293,-80.002751,Mcdonalds,NC
Albert Lea,43.684267,-93.359575,Arbys,MN
Raleigh,35.900308,-78.681365,Mcdonalds,NC
Libby,48.387043,-115.552063,Mcdonalds,MT
Libby,48.387043,-115.552063,Mcdonalds,MT
Moss Point,30.438931,-88.526545,Mcdonalds,MS
Lexington,35.837287,-80.253557,Mcdonalds,NC
Kernersville,36.110972,-80.089276,Mcdonalds,NC
Bozeman,45.698929,-111.046744,Mcdonalds,MT
Bozeman,45.698929,-111.046744,Mcdonalds,MT
Conover,35.695895,-81.232175,Mcdonalds,NC
Missoula,46.869446,-113.985036,Mcdonalds,MT
Cleveland,33.759524,-90.715742,Mcdonalds,MS
Cleveland,33.759524,-90.715742,Mcdonalds,MS
Biloxi,30.39304,-88.884899,Mcdonalds,MS
Southaven,34.962709,-89.990486,Mcdonalds,MS
Southaven,34.962709,-89.990486,Mcdonalds,MS
Greensboro,36.088625,-79.887872,Mcdonalds,NC
Scotland Neck,36.126193,-77.423143,Mcdonalds,NC
Scotland Neck,36.126193,-77.423143,Mcdonalds,NC
Fayetteville,35.03713,-79.006832,Mcdonalds,NC
Whitefish,48.396123,-114.334756,Mcdonalds,MT
Charlotte,35.333437000000004,-80.798965,Mcdonalds,NC
Charlotte,35.203199,-80.73825,Mcdonalds,NC
Salisbury,35.661995,-80.500358,Mcdonalds,NC
Greensboro,36.126014,-79.906582,Mcdonalds,NC
Charlotte,35.236497,-80.735822,Mcdonalds,NC
Charlotte,35.236497,-80.735822,Mcdonalds,NC
Lexington,35.826728,-80.249726,Arbys,NC
Lexington,35.786441,-80.261414,Burger King,NC
Fairview Heights,38.592706,-89.97913,Burger King,IL
Rockford,42.242137,-88.976027,Burger King,IL
West Monroe,32.517245,-92.157261,Burger King,LA
Hartland,42.633792,-83.745291,Taco Bell,MI
Rockford,42.266918,-89.078393,Burger King,IL
Quincy,39.935583,-91.358298,Burger King,IL
Richton Park,41.483933,-87.716547,Burger King,IL
Pontiac,40.873382,-88.662007,Burger King,IL
Pontiac,40.873382,-88.662007,Burger King,IL
Newport News,37.051114,-76.460806,Burger King,VA
Pekin,40.551094,-89.608403,Burger King,IL
Grove City,39.881314,-83.067606,Taco Bell,OH
Oglesby,41.293679,-89.071461,Burger King,IL
Oglesby,41.293679,-89.071461,Burger King,IL
Auburn,38.927033,-121.087568,Taco Bell,CA
Crescent City,41.755062,-124.193834,Taco Bell,CA
Turlock,37.492303,-120.872609,Taco Bell,CA
Turlock,37.517764,-120.84839,Taco Bell,CA
Hilliard,39.985085,-83.150784,Taco Bell,OH
Hilliard,40.031912,-83.141324,Taco Bell,OH
Mount Vernon,38.313427,-88.945891,Burger King,IL
Hamilton,39.423262,-84.593293,Taco Bell,OH
Mount Carmel,38.412503,-87.766489000000007,Burger King,IL
Columbus,39.969056,-82.875638,Taco Bell,OH
Montgomery,41.726724,-88.319467,Burger King,IL
Montgomery,41.726724,-88.319467,Burger King,IL
Monmouth,40.922304,-90.648003,Burger King,IL
Monmouth,40.922304,-90.648003,Burger King,IL
Chalfont,40.270347,-75.223726,Subway,PA
Moline,41.472174,-90.477646,Burger King,IL
Melrose Park,41.908625,-87.883706,Burger King,IL
Dayton,39.789566,-84.238902,Taco Bell,OH
Dayton,39.73069,-84.141681,Taco Bell,OH
Dayton,39.768447,-84.123579,Taco Bell,OH
Dayton,39.706096,-84.202668,Taco Bell,OH
East Peoria,40.67705,-89.56172,Burger King,IL
East Peoria,40.66816,-89.58274,Chick Fil-A,IL
Columbus,40.135435,-83.016861,Taco Bell,OH
Columbus,40.058393,-82.917559,Taco Bell,OH
Columbus,40.066295,-83.092686,Taco Bell,OH
Machesney Park,42.313288,-89.054244,Burger King,IL
Macomb,40.458596,-90.648064,Burger King,IL
Saint Clair,40.727488,-76.190098,Subway,PA
Schuylkill Haven,40.637935,-76.171635,Subway,PA
Bloomsburg,41.003082,-76.456548,Subway,PA
Columbia,40.033798,-76.504435,Subway,PA
Denver,40.228059,-76.089173,Subway,PA
Kankakee,41.115978,-87.864762,Burger King,IL
Joliet,41.581105,-88.163626,Burger King,IL
Gurnee,42.377669,-87.934268,Burger King,IL
Glenview,42.088318,-87.798584,Burger King,IL
Granite City,38.72506,-90.12272,Burger King,IL
Cicero,41.851507,-87.751952,Burger King,IL
DeKalb,41.948497,-88.729428,Arbys,IL
Hyde Park,42.25521,-71.124229,Subway,MA
Cambridge,42.370628,-71.113627,Subway,MA
Maynard,42.431817,-71.455051,Subway,MA
Los Angeles,33.989111,-118.31236,Mcdonalds,CA
Canyon Country,34.415365,-118.464489,Mcdonalds,CA
Woodstock,34.110167,-84.51781,Subway,GA
Layton,41.101724,-111.945057,Subway,UT
Manhattan Beach,33.887088,-118.379032,Mcdonalds,CA
Merced,37.288978,-120.454784,Mcdonalds,CA
Los Angeles,34.041633,-118.308538,Mcdonalds,CA
Modesto,37.670921,-121.031266,Mcdonalds,CA
Carson,33.872499,-118.249899,Mcdonalds,CA
Dinuba,36.545447,-119.376746,Mcdonalds,CA
Palo Alto,37.460186,-122.137635,Mcdonalds,CA
Sacramento,38.596735,-121.415696,Mcdonalds,CA
West Sacramento,38.580839,-121.531005,Mcdonalds,CA
Vallejo,38.083895,-122.232565,Mcdonalds,CA
Glendale,34.170497,-118.289434,Mcdonalds,CA
Chino Hills,33.964895,-117.697501,Mcdonalds,CA
Hercules,38.00878,-122.271288,Mcdonalds,CA
Alhambra,34.077272,-118.13938,Mcdonalds,CA
Santa Ana,33.726842,-117.889116,Mcdonalds,CA
Seaside,36.607914,-121.855982,Mcdonalds,CA
Seaside,36.607914,-121.855982,Mcdonalds,CA
Woodland,38.676763,-121.750518,Mcdonalds,CA
Watsonville,36.916716,-121.775824,Mcdonalds,CA
Birmingham,33.590333,-86.697132,Chick Fil-A,AL
Martinsburg,39.446673,-77.986674,Chick Fil-A,WV
Beckley,37.802793,-81.181533,Chick Fil-A,WV
Yorktown,37.115608,-76.468184,Chick Fil-A,VA
Williamsburg,37.33953,-76.738285,Chick Fil-A,VA
Virginia Beach,36.798702,-76.178946,Chick Fil-A,VA
Roanoke,37.308619,-79.962426,Chick Fil-A,VA
Roanoke,37.308619,-79.962426,Chick Fil-A,VA
Roanoke,37.228457,-79.977693,Chick Fil-A,VA
Henrico,37.636558,-77.549903,Chick Fil-A,VA
Norfolk,36.864964,-76.210719,Chick Fil-A,VA
Lynchburg,37.36773,-79.175586,Chick Fil-A,VA
Hampton,37.048521,-76.390717,Chick Fil-A,VA
Fredericksburg,38.305008,-77.509345,Chick Fil-A,VA
Danville,36.595957,-79.422353,Chick Fil-A,VA
Chantilly,38.887485,-77.444623000000007,Chick Fil-A,VA
Charlottesville,38.078584,-78.473337,Chick Fil-A,VA
Charlottesville,38.088272,-78.471184,Chick Fil-A,VA
Salt Lake City,40.636461,-111.886187,Chick Fil-A,UT
Tallmadge,41.100839,-81.437661,Subway,OH
Grove City,39.896677,-83.081176,Subway,OH
Youngstown,41.103117,-80.706303,Subway,OH
Hazel Park,42.461637,-83.092384,Taco Bell,MI
Detroit,42.414696,-82.991078,Taco Bell,MI
Cuyahoga Falls,41.151148,-81.508981,Subway,OH
Canton,40.829692,-81.424453,Subway,OH
Mount Pleasant,43.590028,-84.768477,Arbys,MI
College Park,38.993906,-76.932576,Taco Bell,MD
College Park,38.993906,-76.932576,Taco Bell,MD
La Grange,29.905505,-96.876605,Subway,TX
Connersville,39.65965,-85.12869,Burger King,IN
Flint,42.945527,-83.69153,Arbys,MI
San Diego,27.761418,-98.22821,Subway,TX
Cadillac,44.275721,-85.406141,Arbys,MI
Grand Rapids,43.009426,-85.689161,Arbys,MI
Wyoming,42.884654,-85.683497,Arbys,MI
Grand Rapids,42.912151,-85.593573,Arbys,MI
Grand Rapids,42.984058,-85.638407,Arbys,MI
Grandville,42.905049,-85.776885,Arbys,MI
Holland,42.755541,-86.11581,Arbys,MI
Haines City,28.124645,-81.64031,Burger King,FL
Hillsdale,41.938054,-84.644247,Arbys,MI
Lowell,42.931488,-85.362962,Arbys,MI
Jackson,42.261453,-84.423763,Arbys,MI
Plainwell,42.450431,-85.663248,Arbys,MI
Plainwell,42.450431,-85.663248,Arbys,MI
Marshall,42.272194,-84.983336,Arbys,MI
Portage,42.194116,-85.597792,Arbys,MI
Kalamazoo,42.261766,-85.53267,Arbys,MI
Lansing,42.669926,-84.543872,Arbys,MI
Saint Johns,42.988532,-84.542143,Arbys,MI
Bridgeport,43.352851,-83.870496,Arbys,MI
Midland,43.661823,-84.247712,Arbys,MI
West Branch,44.251953,-84.226205,Arbys,MI
Belle Glade,26.6752,-80.67163,Burger King,FL
Clare,43.840219,-84.767504,Arbys,MI
Houghton Lake,44.299003,-84.712048,Arbys,MI
Lapeer,43.041955,-83.32014,Arbys,MI
Davison,43.019622,-83.518344,Arbys,MI
Grand Blanc,42.894241,-83.633182,Arbys,MI
Effingham,39.140033,-88.566849,Burger King,IL
Effingham,39.140232,-88.56615,Arbys,IL
Canton,40.769806,-81.385882,Arbys,OH
Canton,40.795141,-81.431983,Arbys,OH
Fresno,36.838733,-119.847902,Taco Bell,CA
Blue Ridge,34.87264,-84.32539,Arbys,GA
Blue Ridge,34.87264,-84.32539,Arbys,GA
Fresno,36.851564,-119.775033,Taco Bell,CA
Sunnyvale,37.372189,-122.047663,Taco Bell,CA
Fairfield,38.260137,-122.053517,Taco Bell,CA
Pleasant Hill,37.981376,-122.067541,Taco Bell,CA
Pleasant Hill,37.953026,-122.059777,Taco Bell,CA
Acworth,34.04479,-84.69587,Burger King,GA
Acworth,34.0344,-84.68075,Arbys,GA
Marietta,34.02467,-84.528218,Mcdonalds,GA
Kingsburg,36.51788,-119.563527,Taco Bell,CA
Pismo Beach,35.134484,-120.605221,Taco Bell,CA
Grover Beach,35.121085,-120.612819,Taco Bell,CA
Nipomo,35.037452,-120.483624,Taco Bell,CA
Bakersfield,35.389522,-119.003386,Taco Bell,CA
Bakersfield,35.389522,-119.003386,Taco Bell,CA
Dodge City,37.752962,-100.025416,Arbys,KS
Dodge City,37.752962,-100.025416,Arbys,KS
Bakersfield,35.380387,-119.020827,Taco Bell,CA
Tulare,36.227047,-119.330843,Taco Bell,CA
Tulare,36.208664,-119.342028,Taco Bell,CA
Gainesville,29.652081,-82.333303,Taco Bell,FL
Coeur d'Alene,47.700486,-116.795134,Arbys,ID
Coeur d'Alene,47.700486,-116.795134,Arbys,ID
Spring Grove,39.882529,-76.864965,Subway,PA
Waynesboro,39.753163,-77.573373,Subway,PA
Snow Shoe,41.026843,-77.935809,Subway,PA
Mansfield,41.799828,-77.076281,Subway,PA
Camp Hill,40.222472,-76.930148,Subway,PA
Roaring Spring,40.331501,-78.386171,Subway,PA
Erie,42.086667,-80.142521,Subway,PA
Erie,42.068814,-80.038942,Subway,PA
Erie,42.114222,-80.034149,Subway,PA
Titusville,41.627797,-79.673326,Subway,PA
White City,42.424354,-122.85108,Mcdonalds,OR
West Linn,45.346352,-122.651045,Mcdonalds,OR
West Linn,45.391447,-122.646082,Mcdonalds,OR
West Linn,45.391447,-122.646082,Mcdonalds,OR
Troutdale,45.543827,-122.3976,Mcdonalds,OR
Hialeah,25.85236,-80.319439,Arbys,FL
Appleton,44.272996,-88.470975,Taco Bell,WI
Bear,39.630468,-75.666136,Chick Fil-A,DE
Bear,39.630185,-75.664759,Burger King,DE
Springfield,44.045685,-122.928465,Mcdonalds,OR
Salem,44.949393,-122.992538,Mcdonalds,OR
Salem,44.947221,-123.049783,Mcdonalds,OR
Salem,44.947221,-123.049783,Mcdonalds,OR
Gainesville,29.637631,-82.338916,Arbys,FL
Salem,44.881341,-123.029824,Mcdonalds,OR
Milton,30.592351,-87.174869,Mcdonalds,FL
Bridgeville,40.366766,-80.106088,Sonic,PA
Canonsburg,40.255621,-80.153666,Sonic,PA
Hinesville,31.843914,-81.593593,Mcdonalds,GA
Hinesville,31.828902,-81.617553,Mcdonalds,GA
Navarre,30.401603,-86.866497,Burger King,FL
Gainesville,34.296844,-83.837155,Mcdonalds,GA
Roseburg,43.23357,-123.372345,Mcdonalds,OR
Hartwell,34.357912,-82.941308,Mcdonalds,GA
Hawkinsville,32.282152,-83.465677,Mcdonalds,GA
Redmond,44.267184,-121.194265,Mcdonalds,OR
Portland,45.496867,-122.570625,Mcdonalds,OR
Portland,45.534074,-122.660326,Mcdonalds,OR
Portland,45.518568,-122.474804,Mcdonalds,OR
Gainesville,34.33859,-83.847194,Mcdonalds,GA
Portland,45.547097,-122.578418,Mcdonalds,OR
Flowery Branch,34.113731,-83.875289,Mcdonalds,GA
Portland,45.610301,-122.680866,Mcdonalds,OR
Fitzgerald,31.700147,-83.250732,Mcdonalds,GA
Elberton,34.109957,-82.864359,Mcdonalds,GA
Portland,45.581668,-122.661459,Mcdonalds,OR
Portland,45.443493,-122.628779,Mcdonalds,OR
Portland,45.516651,-122.679915,Mcdonalds,OR
Portland,45.523,-122.689866,Mcdonalds,OR
Atlanta,33.895572,-84.283386,Mcdonalds,GA
Portland,45.586771,-122.738535,Mcdonalds,OR
Portland,45.511068,-122.682941,Mcdonalds,OR
Portland,45.497752,-122.635837,Mcdonalds,OR
Douglasville,33.724674,-84.762459,Mcdonalds,GA
Ellijay,34.677928,-84.47945,Mcdonalds,GA
Oregon City,45.368912,-122.601786,Mcdonalds,OR
Pendleton,45.656863,-118.810088,Mcdonalds,OR
Decatur,33.77819,-84.295842,Mcdonalds,GA
Douglasville,33.731508,-84.73673,Mcdonalds,GA
Oregon City,45.334883,-122.589765,Mcdonalds,OR
Ontario,44.024706,-116.940583,Mcdonalds,OR
Ontario,44.024706,-116.940583,Mcdonalds,OR
Winter Springs,28.650648,-81.269726,Arbys,FL
Oakridge,43.747162,-122.486358,Mcdonalds,OR
Newport,44.647361,-124.053022,Mcdonalds,OR
Dalton,34.65458,-84.980898,Mcdonalds,GA
Dalton,34.65458,-84.980898,Mcdonalds,GA
Dallas,33.868809,-84.841628,Mcdonalds,GA
Medford,42.371763,-122.855932,Mcdonalds,OR
Cumming,34.186966,-84.142456,Mcdonalds,GA
Medford,42.339557,-122.872146,Mcdonalds,OR
Long Beach,46.341977,-124.05442,Mcdonalds,WA
Covington,33.614464,-83.920178,Mcdonalds,GA
Nashville,35.9784,-77.974215,Subway,NC
Newton,35.646477,-81.26355,Subway,NC
Conyers,33.627899,-83.977799,Mcdonalds,GA
Conyers,33.627899,-83.977799,Mcdonalds,GA
Mount Airy,36.473546,-80.611793,Subway,NC
Mooresville,35.582983,-80.874128,Subway,NC
Morganton,35.725336,-81.692565,Subway,NC
Columbus,32.5324,-84.967533,Mcdonalds,GA
Columbus,32.5324,-84.967533,Mcdonalds,GA
Kinston,35.262313,-77.644783,Subway,NC
Cartersville,34.15733,-84.816204,Mcdonalds,GA
Carrollton,33.596396,-85.036596,Mcdonalds,GA
Carrollton,33.596396,-85.036596,Mcdonalds,GA
Jackson,32.326801,-90.172307,Mcdonalds,MS
Snow Hill,35.442179,-77.668133,Mcdonalds,NC
Crestview,30.7873,-86.55969,Arbys,FL
Santa Ana,33.727985,-117.885151,Subway,CA
Santa Ana,33.6964,-117.885408,Subway,CA
Santa Ana,33.769219,-117.835744,Subway,CA
Raleigh,35.90928,-78.727544,Mcdonalds,NC
Livingston,45.64066,-110.571452,Mcdonalds,MT
Deer Lodge,46.411823,-112.724593,Mcdonalds,MT
Deer Lodge,46.411823,-112.724593,Mcdonalds,MT
Deer Lodge,46.411823,-112.724593,Mcdonalds,MT
Elizabeth City,36.329474,-76.226337,Mcdonalds,NC
Mooresville,35.557833,-80.856348,Mcdonalds,NC
Smithfield,35.519613,-78.314004,Mcdonalds,NC
Charlotte,35.276966,-80.794009,Mcdonalds,NC
Lenoir,35.91401,-81.527586,Mcdonalds,NC
Gulfport,30.450438,-89.103813,Mcdonalds,MS
Charlotte,35.19287,-80.795726,Mcdonalds,NC
Jackson,32.31227,-90.177959,Mcdonalds,MS
Randleman,35.822904,-79.822825,Mcdonalds,NC
Tarboro,35.905248,-77.562595,Mcdonalds,NC
Independence,44.851161,-123.204255,Mcdonalds,OR
Hood River,45.709696,-121.532872,Mcdonalds,OR
Hood River,45.711475,-121.499772,Mcdonalds,OR
Gresham,45.489761,-122.475544,Mcdonalds,OR
Salem,44.990019,-122.987467,Mcdonalds,OR
Gladstone,45.383197,-122.58201,Mcdonalds,OR
Grants Pass,42.437441,-123.307733,Mcdonalds,OR
Farmington,42.500184,-83.357749,Arbys,MI
Winterville,35.546412,-77.404309,Chick Fil-A,NC
Florence,43.974386,-124.097926,Mcdonalds,OR
Eugene,44.048015,-123.145834,Mcdonalds,OR
Eugene,44.095702,-123.126687,Mcdonalds,OR
Falls Church,38.868724,-77.144013,Chick Fil-A,VA
Falls Church,38.868724,-77.144013,Chick Fil-A,VA
Corvallis,44.566313,-123.259904,Mcdonalds,OR
Coos Bay,43.361532,-124.213226,Mcdonalds,OR
Columbus,39.980981,-82.83474,Chick Fil-A,OH
Bend,44.048984,-121.331653,Mcdonalds,OR
Bend,44.020936,-121.324566,Mcdonalds,OR
Astoria,46.190432,-123.836124,Mcdonalds,OR
Astoria,46.190432,-123.836124,Mcdonalds,OR
Albany,44.642616,-123.064759,Mcdonalds,OR
Winner,43.376558,-99.850683,Mcdonalds,SD
Vermillion,42.788466,-96.929214,Mcdonalds,SD
Sioux Falls,43.516712,-96.771109,Mcdonalds,SD
Watertown,44.89069,-97.060755,Mcdonalds,SD
Spearfish,44.501289,-103.860878,Mcdonalds,SD
Sioux Falls,43.529298,-96.688086,Mcdonalds,SD
Sioux Falls,43.514831,-96.77452,Mcdonalds,SD
Rapid City,44.081793,-103.256176,Mcdonalds,SD
Rapid City,44.097617,-103.201638,Mcdonalds,SD
Rapid City,44.09567,-103.150262,Mcdonalds,SD
Pierre,44.370576,-100.360388,Mcdonalds,SD
Chamberlain,43.809754,-99.331061,Mcdonalds,SD
Alexandria,45.942085,-95.312621,Taco Bell,MN
Brookings,44.311492,-96.778289,Mcdonalds,SD
Minneapolis,45.100401,-93.261821,Taco Bell,MN
Chanhassen,44.862427,-93.545212,Taco Bell,MN
Minneapolis,44.836406,-93.289271,Taco Bell,MN
La Crosse,43.773454,-91.217936,Taco Bell,WI
Minneapolis,45.129052,-93.257356,Taco Bell,MN
Saint Paul,44.949379,-93.018372,Taco Bell,MN
Minneapolis,44.947993,-93.273227,Taco Bell,MN
Burnsville,44.772818,-93.305195,Taco Bell,MN
Saint Paul,44.99229,-93.146918,Taco Bell,MN
Savage,44.748779,-93.380588,Taco Bell,MN
Gilroy,37.00287,-121.55097,Arbys,CA
Hamilton,39.390724,-84.512034,Arbys,OH
Ermine,37.123476,-82.782979,Arbys,KY
Maysville,38.635851,-83.791233,Arbys,KY
South Williamson,37.654201,-82.272153,Arbys,KY
Macomb,42.629748,-82.914552,Arbys,MI
Oacoma,43.803192,-99.394397,Arbys,SD
Manchester,42.956836,-71.431785,Arbys,NH
Broken Bow,34.019276,-94.739067,Arbys,OK
Frackville,40.768785,-76.223857,Arbys,PA
Medford,42.313247,-122.860231,Arbys,OR
Sayre,41.981524,-76.543623,Arbys,PA
Dublin,37.084733,-80.690316,Arbys,VA
Gordonsville,37.979247,-78.210747,Arbys,VA
Tucson,32.502841,-110.925483,Arbys,AZ
Hamilton,39.423607,-84.584287,Arbys,OH
Milford,39.191253,-84.254849,Arbys,OH
Cincinnati,39.145862,-84.625642,Arbys,OH
Cincinnati,39.225036,-84.516375,Arbys,OH
Middletown,39.500007,-84.350646,Arbys,OH
Mason,39.357377,-84.26839,Arbys,OH
Hot Springs National Park,34.490828,-93.087125,Arbys,AR
Albuquerque,35.175602,-106.592743,Arbys,NM
Shepherdsville,37.989576,-85.708683,Arbys,KY
McMinnville,45.22944,-123.171326,Arbys,OR
Danville,36.582443,-79.351877,Burger King,VA
Union,38.431621,-90.971016,Arbys,MO
Saint Cloud,45.563438,-94.142246,Arbys,MN
Thief River Falls,48.119546,-96.184237,Arbys,MN
Worthington,43.63511,-95.594416,Arbys,MN
Mankato,44.166422,-93.950449,Arbys,MN
Rochester,44.006546,-92.475045,Arbys,MN
Minneapolis,45.15777,-93.234152,Arbys,MN
Minneapolis,45.196941,-93.352381,Arbys,MN
Minneapolis,44.835821,-93.289168,Arbys,MN
Minneapolis,44.965776,-93.349947,Arbys,MN
Osseo,45.0977,-93.447752,Arbys,MN
Shakopee,44.776371,-93.41555,Arbys,MN
Saint Paul,44.728567,-93.218517,Arbys,MN
Saint Paul,44.921734,-93.166681,Arbys,MN
Faribault,44.293146,-93.289314,Arbys,MN
Saint Paul,45.035373,-93.018161,Arbys,MN
Lindstrom,45.391838,-92.854527,Arbys,MN
Cambridge,45.572166,-93.194886,Arbys,MN
Compton,33.895706,-118.22063,Burger King,CA
Compton,33.895706,-118.22063,Burger King,CA
Compton,33.895706,-118.22063,Burger King,CA
Chula Vista,32.626972,-117.08742,Mcdonalds,CA
Knoxville,36.006911,-84.018081,Burger King,TN
Citrus Heights,38.677958,-121.2652,Burger King,CA
Citrus Heights,38.677958,-121.2652,Burger King,CA
Willows,39.52263,-122.21168,Mcdonalds,CA
Castro Valley,37.694563,-122.085455,Burger King,CA
Campbell,37.294339,-121.950871,Burger King,CA
Carmichael,38.632,-121.3288,Burger King,CA
Canoga Park,34.19788,-118.606399,Arbys,CA
Spanish Fork,40.123976,-111.642624,Burger King,UT
Brea,33.911434,-117.865544,Arbys,CA
Park City,40.658326,-111.507084,Burger King,UT
Atascadero,35.474274,-120.654576,Burger King,CA
Layton,41.072556,-111.978598,Burger King,UT
Hurricane,37.176458,-113.300377,Burger King,UT
Benicia,38.06753,-122.168337,Burger King,CA
Uvalde,29.21207,-99.778349,Burger King,TX
Barstow,34.891772,-117.001755,Burger King,CA
Bellflower,33.872425,-118.118195,Burger King,CA
Sherman,33.645878,-96.612181,Burger King,TX
Baldwin Park,34.084904,-117.965034,Burger King,CA
Azusa,34.12867,-117.88797,Chick Fil-A,CA
Azusa,34.12867,-117.88797,Chick Fil-A,CA
Homewood,41.569335,-87.636192,Taco Bell,IL
Antioch,38.00562,-121.755602,Burger King,CA
Round Lake,42.379367,-88.090594,Taco Bell,IL
Rockford,42.242169,-88.979761,Taco Bell,IL
Richmond,42.481616,-88.306089,Taco Bell,IL
Richmond,42.481616,-88.306089,Taco Bell,IL
Peru,41.369912,-89.127509,Taco Bell,IL
Peru,41.369912,-89.127509,Taco Bell,IL
Peoria,40.725904,-89.632557,Taco Bell,IL
Palos Hills,41.689687,-87.807139,Taco Bell,IL
Pekin,40.560185,-89.620775,Taco Bell,IL
Belton,34.582264,-82.47881,Mcdonalds,SC
North Chicago,42.318766,-87.86647,Taco Bell,IL
Normal,40.510327,-88.959485,Taco Bell,IL
Niles,42.017637,-87.806548,Taco Bell,IL
Morton,40.625831,-89.464451,Taco Bell,IL
Montgomery,41.71974,-88.319428,Taco Bell,IL
Moline,41.466329,-90.507118,Taco Bell,IL
Jamestown,46.88957,-98.71822,Arbys,ND
Jessup,39.167616,-76.783963,Mcdonalds,MD
Joliet,41.57939,-88.165058,Taco Bell,IL
Glendale Heights,41.935996,-88.071188,Taco Bell,IL
Freeport,42.272672,-89.63141,Taco Bell,IL
Freeport,42.272672,-89.63141,Taco Bell,IL
Hanover,39.153002,-76.723817,Mcdonalds,MD
Eloy,32.806598,-111.67189,Arbys,AZ
Ellicott City,39.250777,-76.813101,Mcdonalds,MD
Elkton,39.635133,-75.805571,Mcdonalds,MD
Dundalk,39.264906,-76.527427,Mcdonalds,MD
Dundalk,39.264906,-76.527427,Mcdonalds,MD
Crisfield,37.991003,-75.844143,Mcdonalds,MD
Columbia,39.185679,-76.843415,Mcdonalds,MD
Clarksville,39.210178,-76.937833,Mcdonalds,MD
Chestertown,39.225371,-76.070907,Mcdonalds,MD
Catonsville,39.284946,-76.759683,Mcdonalds,MD
Sebastopol,38.394035,-122.818689,Mcdonalds,CA
McKinney,33.158926,-96.680845,Mcdonalds,TX
Shreveport,32.448789,-93.781072,Burger King,LA
Alexandria,31.345107,-92.517004,Burger King,LA
Fitchburg,42.582414,-71.775218,Burger King,MA
Springfield,42.108163,-72.576647,Burger King,MA
Winnfield,31.936107,-92.653639,Burger King,LA
Bastrop,32.78127,-91.901043,Burger King,LA
Baton Rouge,30.385667,-91.064558,Burger King,LA
Shreveport,32.448172,-93.865242,Burger King,LA
Baton Rouge,30.433078,-91.057839,Burger King,LA
Baton Rouge,30.433078,-91.057839,Burger King,LA
Zachary,30.647977,-91.151824,Burger King,LA
Fayetteville,35.07857,-78.940747,Mcdonalds,NC
Fayetteville,35.07857,-78.940747,Mcdonalds,NC
Port Allen,30.406769,-91.229842,Burger King,LA
Grand Rapids,42.842144,-85.624731,Taco Bell,MI
Opelousas,30.519384,-92.074994,Burger King,LA
New Iberia,29.968869,-91.835925,Burger King,LA
Bryant,34.621132,-92.498826,Arbys,AR
Hagerstown,39.691607,-77.738818,Burger King,MD
Hagerstown,39.626191,-77.767691,Burger King,MD
Hagerstown,39.600468,-77.729678,Burger King,MD
Grantsville,39.690789,-79.103802,Burger King,MD
Cumberland,39.637928,-78.832937,Burger King,MD
Frostburg,39.642962,-78.909752,Burger King,MD
Windsor Mill,39.353322,-76.755754,Burger King,MD
Windsor Mill,39.353322,-76.755754,Burger King,MD
Rosedale,39.32338,-76.502491,Burger King,MD
Rosedale,39.32338,-76.502491,Burger King,MD
Catonsville,39.289591,-76.726646,Burger King,MD
Baltimore,39.297176,-76.529346,Burger King,MD
Havre de Grace,39.546763,-76.106205,Burger King,MD
Glen Burnie,39.135989,-76.597223,Burger King,MD
Silver Spring,39.05768,-77.084654,Burger King,MD
Hyattsville,38.939492,-76.906024,Burger King,MD
Hyattsville,38.984017,-76.975083,Burger King,MD
Hyattsville,38.984017,-76.975083,Burger King,MD
Las Vegas,36.158309,-115.162684,Mcdonalds,NV
Sparks,39.527755,-119.701355,Mcdonalds,NV
North Las Vegas,36.239482,-115.160893,Mcdonalds,NV
Las Vegas,36.158558,-115.263132,Mcdonalds,NV
Las Vegas,36.09383,-115.294615,Mcdonalds,NV
Las Vegas,36.169828,-115.142841,Mcdonalds,NV
Las Vegas,36.195232,-115.161299,Mcdonalds,NV
Las Vegas,36.195232,-115.161299,Mcdonalds,NV
Las Vegas,36.172774,-115.20044,Mcdonalds,NV
Las Vegas,36.236888,-115.061636,Mcdonalds,NV
Las Vegas,36.123133,-115.242839,Mcdonalds,NV
North Las Vegas,36.188148,-115.115191,Mcdonalds,NV
Las Vegas,36.114851,-115.209048,Mcdonalds,NV
Las Vegas,36.100467,-115.224087,Mcdonalds,NV
Las Vegas,36.114523,-115.195934,Mcdonalds,NV
Las Vegas,36.119881,-115.138031,Mcdonalds,NV
Las Vegas,36.159167,-115.079606,Mcdonalds,NV
Las Vegas,36.164519,-115.06323,Mcdonalds,NV
Las Vegas,36.137324,-115.064924,Mcdonalds,NV
Las Vegas,36.111142,-115.062752,Mcdonalds,NV
Las Vegas,36.113844,-115.066665,Mcdonalds,NV
Las Vegas,36.113844,-115.066665,Mcdonalds,NV
Henderson,36.061115,-115.033495,Mcdonalds,NV
Boulder City,35.971334,-114.849553,Mcdonalds,NV
Kalispell,48.203448,-114.307145,Taco Bell,MT
Great Falls,47.521028,-111.308274,Taco Bell,MT
Pearl,32.282241,-90.118333,Taco Bell,MS
Clarksdale,34.189784,-90.577591,Taco Bell,MS
Urbana,40.116302,-88.220945,Taco Bell,IL
Yuma,32.697157,-114.624638,Taco Bell,AZ
Tucson,32.350373,-110.97579,Taco Bell,AZ
Tucson,32.356885,-111.091432,Taco Bell,AZ
Tucson,32.286587,-110.964259,Taco Bell,AZ
Tucson,32.162055,-110.94266,Taco Bell,AZ
Tucson,32.207496,-110.857543,Taco Bell,AZ
Tucson,32.207496,-110.857543,Taco Bell,AZ
Tucson,32.250912,-110.918865,Taco Bell,AZ
Tempe,33.363763,-111.911152,Taco Bell,AZ
Tempe,33.363763,-111.911152,Taco Bell,AZ
Surprise,33.609206,-112.356741,Taco Bell,AZ
Scottsdale,33.537573,-111.885038,Taco Bell,AZ
Scottsdale,33.613253,-111.926347,Taco Bell,AZ
Phoenix,33.40627,-111.978863,Taco Bell,AZ
Phoenix,33.639046,-112.149911,Taco Bell,AZ
Haleyville,34.227995,-87.621764,Taco Bell,AL
Greenville,31.855389,-86.640842,Taco Bell,AL
Birmingham,33.557866,-86.889551,Taco Bell,AL
Green Bay,44.555863,-88.057722,Taco Bell,WI
Green Bay,44.555863,-88.057722,Taco Bell,WI
Green Bay,44.522663,-88.062164,Taco Bell,WI
De Pere,44.462654,-88.117323,Taco Bell,WI
Fond du Lac,43.783309,-88.412355,Taco Bell,WI
Taylor,42.256217,-83.241127,Burger King,MI
Taylor,42.213722,-83.229223,Burger King,MI
Romulus,42.223662,-83.385421,Burger King,MI
Plymouth,42.395612,-83.485614,Burger King,MI
Dearborn,42.297904,-83.284666,Burger King,MI
Ann Arbor,42.284725,-83.838496,Burger King,MI
Saint Clair Shores,42.472813,-82.905312,Burger King,MI
Palmyra,44.829194,-69.296653,Burger King,ME
Presque Isle,46.700549,-68.010114,Burger King,ME
Ellsworth,44.538525,-68.415028,Burger King,ME
Ellsworth,44.538525,-68.415028,Burger King,ME
Sanford,43.419098,-70.755742,Burger King,ME
Cornersville,35.30936,-86.87959,Mcdonalds,TN
Cornersville,35.30936,-86.87959,Mcdonalds,TN
Cornersville,35.30936,-86.87959,Mcdonalds,TN
Dickson,36.02263,-87.33807,Mcdonalds,TN
Newnan,33.38493,-84.78484,Mcdonalds,GA
Newnan,33.37642,-84.75432,Mcdonalds,GA
Morrow,33.56206,-84.320597,Mcdonalds,GA
Milledgeville,33.074009,-83.225008,Mcdonalds,GA
Milledgeville,33.11724,-83.2647,Mcdonalds,GA
Metter,32.37662,-82.06306,Mcdonalds,GA
McDonough,33.42853,-84.179288,Mcdonalds,GA
Augusta,33.507432,-82.142786,Mcdonalds,GA
Augusta,33.507432,-82.142786,Mcdonalds,GA
Marietta,34.022903,-84.426488,Mcdonalds,GA
Marietta,33.980562,-84.463039,Mcdonalds,GA
Marietta,33.871264,-84.467985,Mcdonalds,GA
Manchester,32.853488,-84.617255,Mcdonalds,GA
Macon,32.834019,-83.636248,Mcdonalds,GA
Macon,32.900297,-83.686901,Mcdonalds,GA
Macon,32.811978,-83.723079,Mcdonalds,GA
Lithonia,33.702364,-84.168463,Mcdonalds,GA
Lavonia,34.443451,-83.114122,Mcdonalds,GA
Kennesaw,34.060645,-84.592795,Mcdonalds,GA
Saint Joseph,39.735438,-94.801106,Taco Bell,MO
Saint Charles,38.787706,-90.512078,Taco Bell,MO
Perryville,37.711784,-89.890735,Taco Bell,MO
Pacific,38.484707,-90.760092,Taco Bell,MO
Saint Louis,38.690958,-90.389834,Taco Bell,MO
Monett,36.913555,-93.913564,Taco Bell,MO
Monett,36.913555,-93.913564,Taco Bell,MO
Mount Vernon,37.094525,-93.814544,Taco Bell,MO
Maryland Heights,38.715528,-90.452975,Taco Bell,MO
Kirksville,40.185961,-92.571955,Taco Bell,MO
Kansas City,39.246764,-94.574317,Taco Bell,MO
Kansas City,39.068408,-94.583579,Taco Bell,MO
Jefferson City,38.554882,-92.19907,Taco Bell,MO
Hazelwood,38.786821,-90.351463,Taco Bell,MO
Fenton,38.513119,-90.441099,Taco Bell,MO
Florissant,38.772846,-90.305189,Taco Bell,MO
Eureka,38.504591,-90.643431,Taco Bell,MO
Park Hills,37.874667,-90.512367,Taco Bell,MO
Farmington,37.7911,-90.432989,Taco Bell,MO
Dexter,36.803572,-89.980024,Taco Bell,MO
Columbia,38.964735,-92.334883,Taco Bell,MO
Columbia,38.947002,-92.334374,Taco Bell,MO
Columbia,38.909489,-92.33195,Taco Bell,MO
Columbia,38.963799,-92.288570000000007,Taco Bell,MO
Littleton,39.56643,-104.984059,Burger King,CO
Livingston,36.376645,-85.338262,Arbys,TN
Phoenix,33.524418,-112.116097,Burger King,AZ
Phoenix,33.524418,-112.116097,Burger King,AZ
Knoxville,36.027337,-83.928196,Arbys,TN
Knoxville,35.904871,-84.142712,Arbys,TN
Knoxville,36.004299,-84.019892,Arbys,TN
Mount Juliet,36.174747000000004,-86.5126,Arbys,TN
Jonesborough,36.300038,-82.469068,Arbys,TN
Jackson,35.657745,-88.850925,Arbys,TN
Jackson,35.681656,-88.856849,Arbys,TN
Hixson,35.199009,-85.16108,Arbys,TN
Hixson,35.199009,-85.16108,Arbys,TN
Greeneville,36.170171,-82.819643,Arbys,TN
Greeneville,36.170171,-82.819643,Arbys,TN
Dickson,36.021612,-87.3397,Arbys,TN
Columbia,35.643902,-86.891575,Arbys,TN
Chattanooga,35.009665,-85.220524,Arbys,TN
Chattanooga,35.040875,-85.152459,Arbys,TN
Memphis,35.205193,-89.795492,Arbys,TN
Sioux Falls,43.602681,-96.7106,Arbys,SD
Rapid City,44.096701,-103.15038,Arbys,SD
Summerville,33.023425,-80.172055,Arbys,SC
Spartanburg,34.950739,-81.918285,Arbys,SC
Brighton,39.986507,-104.797381,Dairy Queen,CO
Seaford,38.64614,-75.596986,Dairy Queen,DE
Redding,40.582248,-122.354262,Dairy Queen,CA
Westminster,33.725075,-117.988953,Dairy Queen,CA
San Diego,32.768495,-117.148562,Dairy Queen,CA
Gonzales,36.513944,-121.437059,Dairy Queen,CA
Littleton,39.571848,-104.988563,Dairy Queen,CO
Denver,39.702302,-104.940606,Dairy Queen,CO
Flint,42.990574,-83.65351,Burger King,MI
Flint,43.088438,-83.694148,Burger King,MI
Durant,33.991121,-96.377859,Mcdonalds,OK
Hartland,42.633676,-83.746238,Burger King,MI
Sachse,32.978659,-96.591288,Subway,TX
Arlington,32.643919,-97.075422,Subway,TX
Waterford,42.691102,-83.38723,Burger King,MI
Wagoner,35.956703,-95.395267,Mcdonalds,OK
Cuero,29.091554,-97.284129,Subway,TX
Bixby,35.987891,-95.885956,Mcdonalds,OK
Amarillo,35.161595,-101.90514,Subway,TX
Waco,31.53293,-97.19316,Subway,TX
Weatherford,32.735363,-97.769207,Subway,TX
Poteau,35.072841,-94.628967,Mcdonalds,OK
Glenpool,35.958672,-96.009608,Mcdonalds,OK
McAlester,34.927398,-95.743864,Mcdonalds,OK
Edmond,35.652771,-97.463067,Mcdonalds,OK
Guthrie,35.863246,-97.425374,Mcdonalds,OK
Oklahoma City,35.463722,-97.388153,Mcdonalds,OK
Oklahoma City,35.334207,-97.530398,Mcdonalds,OK
Oklahoma City,35.348769,-97.497641,Mcdonalds,OK
San Diego,32.832368,-117.159573,Subway,CA
Hope,33.678128,-93.601565,Taco Bell,AR
Hope,33.678128,-93.601565,Taco Bell,AR
Fort Smith,35.385245,-94.403232,Taco Bell,AR
Fort Smith,35.385245,-94.403232,Taco Bell,AR
Conway,35.092248,-92.468102,Taco Bell,AR
Cabot,34.980033,-92.030321,Taco Bell,AR
Bentonville,36.372432,-94.221497,Taco Bell,AR
Janesville,42.679177,-89.050859,Taco Bell,WI
Hayward,37.651282,-122.105066,Dairy Queen,CA
Boulder,40.033998,-105.258437,Dairy Queen,CO
Ventura,34.266241,-119.24889,Dairy Queen,CA
Chandler,33.301721,-111.898723,Dairy Queen,AZ
National City,32.656337,-117.065813,Dairy Queen,CA
Glen Burnie,39.167289,-76.622321,Taco Bell,MD
Plattsmouth,41.002434,-95.894986,Subway,NE
Tullahoma,35.373156,-86.221718,Mcdonalds,TN
Arapahoe,40.306316,-99.896556,Subway,NE
Dayton,35.459354,-85.046898,Mcdonalds,TN
Grand Island,40.830827,-98.380752,Subway,NE
Signal Mountain,35.140875,-85.327275,Mcdonalds,TN
Signal Mountain,35.140875,-85.327275,Mcdonalds,TN
Midland,32.003568,-102.13702,Arbys,TX
Hixson,35.140829,-85.248355,Mcdonalds,TN
Ocoee,35.127103,-84.720553,Mcdonalds,TN
Lubbock,33.548206,-101.885068,Arbys,TX
Dunlap,35.378379,-85.384848,Mcdonalds,TN
Hixson,35.201114,-85.158938,Mcdonalds,TN
Humble,29.998212,-95.18681,Arbys,TX
Spring Hill,35.74481,-86.93916,Mcdonalds,TN
Spring Hill,35.74481,-86.93916,Mcdonalds,TN
Nashville,36.142389,-86.743079,Mcdonalds,TN
Cleveland,35.201159,-84.844775,Mcdonalds,TN
Grapevine,32.927231,-97.087478,Arbys,TX
Nashville,36.086234,-86.694938,Mcdonalds,TN
Nashville,36.156083,-86.787663,Mcdonalds,TN
Nashville,36.145691,-86.811808,Mcdonalds,TN
White House,36.468971,-86.678718,Mcdonalds,TN
Shelbyville,35.513214,-86.452045,Mcdonalds,TN
Smithville,35.95728,-85.81157,Mcdonalds,TN
Old Hickory,36.25791,-86.65756,Mcdonalds,TN
Murfreesboro,35.841338,-86.391189,Mcdonalds,TN
Oregon City,45.368348,-122.59941,Subway,OR
Mount Juliet,36.23145,-86.51437,Mcdonalds,TN
Oakland,43.544354,-123.284679,Subway,OR
Windsor,40.478104,-104.927004,Subway,CO
Newport,44.654551,-124.055182,Subway,OR
North Bend,43.391444,-124.243445,Subway,OR
Molalla,45.149569,-122.576653,Subway,OR
Hendersonville,36.321601,-86.623146,Mcdonalds,TN
Lebanon,36.2162,-86.33171,Mcdonalds,TN
Lebanon,36.2162,-86.33171,Mcdonalds,TN
Gunnison,38.544396,-106.926458,Subway,CO
Lake Oswego,45.414873,-122.663907,Subway,OR
Gallatin,36.385619,-86.45516,Mcdonalds,TN
John Day,44.415886,-118.952675,Subway,OR
Goodlettsville,36.30015,-86.69999,Mcdonalds,TN
Hartsville,36.39974,-86.16198,Mcdonalds,TN
San Diego,32.979812,-117.080543,Chick Fil-A,CA
San Diego,32.979812,-117.080543,Chick Fil-A,CA
Lake Orion,42.762813,-83.242852,Arbys,MI
Buford,34.143102,-83.952528,Mcdonalds,GA
Buford,34.094968,-84.01159,Mcdonalds,GA
Buford,34.094968,-84.01159,Mcdonalds,GA
Lewes,38.749052,-75.166667,Arbys,DE
Scottsdale,33.612761,-111.926225,Burger King,AZ
Springdale,36.171556,-94.139055,Burger King,AR
Milford,41.238404,-73.036471,Burger King,CT
Arvada,39.812335,-105.140035,Burger King,CO
Surprise,33.638127,-112.332204,Burger King,AZ
Parker,39.538827,-104.769641,Arbys,CO
Denver,39.914335,-104.94128,Arbys,CO
Martinsburg,39.48159,-77.957305,Arbys,WV
Cabot,34.976966,-92.027031,Burger King,AR
Littleton,39.568734,-105.109425,Arbys,CO
Tucson,32.398868,-110.956718,Burger King,AZ
Denver,39.73969,-105.116192,Burger King,CO
Brighton,39.971988,-104.828004,Arbys,CO
Brighton,39.971988,-104.828004,Arbys,CO
Grantsville,39.692319,-79.100152,Arbys,MD
Cleveland,30.35479,-95.091272,Arbys,TX
Spring,30.10386,-95.396513,Arbys,TX
Port Washington,43.409465,-87.871594,Arbys,WI
Rensselaer,40.94148,-87.217484,Arbys,IN
Rensselaer,40.94148,-87.217484,Arbys,IN
Rensselaer,40.94148,-87.217484,Arbys,IN
Marquette,46.550951,-87.455973,Arbys,MI
Palm Desert,33.721045,-116.395199,Arbys,CA
Wapakoneta,40.560822,-84.172283,Arbys,OH
Wadsworth,41.049229,-81.729378,Arbys,OH
Whitmore Lake,42.442885,-83.758571,Arbys,MI
Rosedale,39.336473,-76.483844,Arbys,MD
Monaca,40.671195,-80.312716,Arbys,PA
Grandview,38.903952,-94.529981,Subway,MO
Seaside,36.606641,-121.846898,Mcdonalds,CA
Cypress,33.817718,-118.037309,Dairy Queen,CA
Vandalia,38.977146,-89.100449,Mcdonalds,IL
Urbana,40.118229,-88.204407,Mcdonalds,IL
Taylorville,39.552717,-89.298838,Mcdonalds,IL
Sullivan,39.600814,-88.607598,Mcdonalds,IL
Orlando,28.494787,-81.396849,Subway,FL
Winter Park,28.60055,-81.326367,Subway,FL
Sumter,33.951732,-80.496244,Subway,SC
North Myrtle Beach,33.829647,-78.671306,Subway,SC
Simpsonville,34.66241,-82.26043,Subway,SC
Lexington,33.973488,-81.154761,Subway,SC
Piedmont,34.712582,-82.452762,Subway,SC
Allendale,33.009494,-81.307026,Subway,SC
Columbia,34.045531,-81.099838,Subway,SC
Aiken,33.507848,-81.711162,Subway,SC
Tacoma,47.25587,-122.521545,Mcdonalds,WA
Tacoma,47.190854,-122.434022,Mcdonalds,WA
Seattle,47.466884,-122.288019,Mcdonalds,WA
Tacoma,47.233949,-122.502619,Mcdonalds,WA
Spokane,47.741708,-117.409799,Mcdonalds,WA
Toppenish,46.375104,-120.320984,Mcdonalds,WA
Spokane,47.657086,-117.263862,Mcdonalds,WA
Seattle,47.666558,-122.300578,Mcdonalds,WA
Tacoma,47.255291,-122.445458,Mcdonalds,WA
Spokane,47.687771,-117.196799,Mcdonalds,WA
Spokane,47.657092,-117.346854,Mcdonalds,WA
Spokane,47.652236,-117.436426,Mcdonalds,WA
Spokane,47.68826,-117.364934,Mcdonalds,WA
Spokane,47.68826,-117.364934,Mcdonalds,WA
Selah,46.647166,-120.529917,Mcdonalds,WA
Silverdale,47.657975,-122.686085,Mcdonalds,WA
Spokane,47.674263,-117.426492,Mcdonalds,WA
Spokane,47.698676,-117.410507,Mcdonalds,WA
Seattle,47.775524,-122.310817,Mcdonalds,WA
Seattle,47.614069,-122.33783,Mcdonalds,WA
Renton,47.504275,-122.160506,Mcdonalds,WA
Seattle,47.620703,-122.347609,Mcdonalds,WA
Sweetwater,35.59911,-84.519332,Burger King,TN
Seattle,47.545979,-122.285695,Mcdonalds,WA
Seattle,47.545979,-122.285695,Mcdonalds,WA
Seattle,47.544436,-122.387232,Mcdonalds,WA
Renton,47.471592,-122.212609,Mcdonalds,WA
Puyallup,47.19369,-122.292485,Mcdonalds,WA
Pullman,46.712642,-117.184209,Mcdonalds,WA
Redmond,47.70036,-122.025026,Mcdonalds,WA
Puyallup,47.160468,-122.303388,Mcdonalds,WA
Puyallup,47.161054,-122.289436,Mcdonalds,WA
Prosser,46.220342,-119.788817,Mcdonalds,WA
Atlanta,33.844431,-84.371128,Chick Fil-A,GA
Opelousas,30.521999,-92.082181,Sonic,LA
Middletown,41.542955,-72.65224,Subway,CT
Uncasville,41.440978,-72.105085,Subway,CT
Capitol Heights,38.887058,-76.899635,Taco Bell,MD
Lake Worth,26.619666,-80.142903,Taco Bell,FL
Gretna,29.914113,-90.048019,Taco Bell,LA
Junction City,39.021126,-96.819631,Taco Bell,KS
Houston,29.829027,-95.38047213,Chick Fil-A,TX
Louisville,38.133999,-85.578739,Chick Fil-A,KY
Oklahoma City,35.61291,-97.54906,Chick Fil-A,OK
West Frankfort,37.898253,-88.950002,Taco Bell,IL
Bridge City,30.023985,-93.843028,Taco Bell,TX
Nottingham,39.377515,-76.458366,Taco Bell,MD
Granite Bay,38.745554,-121.225728,Taco Bell,CA
Keene,42.924113,-72.294112,Taco Bell,NH
Grand Junction,39.077662,-108.55843,Taco Bell,CO
West Sacramento,38.577614,-121.549103,Taco Bell,CA
West Sacramento,38.577614,-121.549103,Taco Bell,CA
Saint Louis,38.658967,-90.299028,Taco Bell,MO
Cameron,35.262308,-79.047749,Taco Bell,NC
Youngstown,40.988422,-80.633249,Taco Bell,OH
Louisville,38.126861,-85.851299,Taco Bell,KY
Fort Worth,32.809844,-97.425247,Taco Bell,TX
Harrisburg,37.727887,-88.536305,Taco Bell,IL
Harrisburg,37.727887,-88.536305,Taco Bell,IL
Springfield,42.120632,-72.583872,Taco Bell,MA
Miami,25.69886,-80.295648,Taco Bell,FL
Burley,42.563372,-113.792354,Taco Bell,ID
Reynoldsburg,39.954489,-82.826502,Taco Bell,OH
Indianapolis,39.904852,-86.058835,Taco Bell,IN
Indianapolis,39.904852,-86.058835,Taco Bell,IN
Baton Rouge,30.3836,-91.0659,Taco Bell,LA
Beaumont,30.080429,-94.163022,Taco Bell,TX
Beaumont,30.080429,-94.163022,Taco Bell,TX
Beaumont,30.080429,-94.163022,Taco Bell,TX
Whitsett,36.062327,-79.606211,Taco Bell,NC
Charles Town,39.295758,-77.84342,Taco Bell,WV
Palmetto,27.521645,-82.557224,Taco Bell,FL
Las Vegas,36.084409,-115.031472,Taco Bell,NV
Coldwater,41.936172,-84.976189,Taco Bell,MI
Coldwater,41.936172,-84.976189,Taco Bell,MI
Citrus Heights,38.707036,-121.313446,Taco Bell,CA
Cumming,34.187933,-84.142351,Taco Bell,GA
Knoxville,35.921571,-83.866099,Taco Bell,TN
Toccoa,34.571294,-83.307403,Taco Bell,GA
Bolivar,35.256037,-88.996902,Taco Bell,TN
Franklin,42.914237,-88.009744,Taco Bell,WI
Yakima,46.60432,-120.495873,Taco Bell,WA
Dunn,35.303308,-78.603089,Taco Bell,NC
Portland,45.534583,-122.657951,Taco Bell,OR
Lake Charles,30.198266,-93.211309,Taco Bell,LA
Lemon Grove,32.742935,-117.042061,Taco Bell,CA
Griffin,33.247358,-84.273987,Taco Bell,GA
Grand Prairie,32.746398,-96.994926,Taco Bell,TX
Evanston,41.257727,-110.985617,Taco Bell,WY
Kansas City,39.116251,-94.749461,Taco Bell,KS
Clarion,41.189678,-79.395163,Taco Bell,PA
Longview,46.146362,-122.926549,Taco Bell,WA
Vancouver,45.653412,-122.587996,Taco Bell,WA
Spartanburg,34.967951,-81.933045,Taco Bell,SC
Spartanburg,34.967951,-81.933045,Taco Bell,SC
Marion,36.839552,-81.507778,Taco Bell,VA
Kissimmee,28.340036,-81.597628,Taco Bell,FL
Manassas,38.788199,-77.513481,Taco Bell,VA
Sunland,34.259305,-118.304633,Taco Bell,CA
Adairsville,34.376962,-84.912665,Taco Bell,GA
Germantown,35.113345,-89.800791,Taco Bell,TN
Newbury Park,34.189096,-118.941206,Taco Bell,CA
Newbury Park,34.189096,-118.941206,Taco Bell,CA
La Quinta,33.710357,-116.289028,Taco Bell,CA
Lawton,34.594696,-98.385726,Taco Bell,OK
Leitchfield,37.46436,-86.292327,Taco Bell,KY
Scottsbluff,41.873427,-103.674066,Taco Bell,NE
West Hills,34.207937,-118.623816,Taco Bell,CA
Knoxville,35.929104,-84.033147,Taco Bell,TN
Cedar City,37.680542,-113.07336,Taco Bell,UT
Carlsbad,33.160686,-117.346057,Taco Bell,CA
Huntington Beach,33.729885,-117.998453,Taco Bell,CA
Baton Rouge,30.395903,-91.110117,Taco Bell,LA
Hurst,32.823978,-97.185513,Taco Bell,TX
Fort Lauderdale,26.1942,-80.253279,Taco Bell,FL
Las Cruces,32.310574,-106.754458,Taco Bell,NM
Citrus Heights,38.706616,-121.271304,Taco Bell,CA
La Puente,34.034233,-117.974457,Burger King,CA
Lake Elsinore,33.693207,-117.3367,Burger King,CA
King City,36.202495,-121.129794,Burger King,CA
Los Angeles,34.098217,-118.343842,Burger King,CA
Imperial Beach,32.584401,-117.108462,Burger King,CA
Highland,34.136352,-117.196598,Burger King,CA
Glendale,34.153534,-118.258232,Burger King,CA
Glendale,34.127256,-118.258034,Burger King,CA
Glendale,34.142403,-118.239105,Burger King,CA
Garden Grove,33.759965,-117.954612,Burger King,CA
Galt,38.250443,-121.29188,Burger King,CA
Fullerton,33.859432,-117.975983,Burger King,CA
Fresno,36.735702,-119.744933,Burger King,CA
Fresno,36.771681,-119.864043,Burger King,CA
Fresno,36.771681,-119.864043,Burger King,CA
Fremont,37.532711,-121.958591,Burger King,CA
Fremont,37.552478,-121.978771,Burger King,CA
Fremont,37.552478,-121.978771,Burger King,CA
Fortuna,40.580032,-124.146682,Burger King,CA
Nashville,36.207151,-86.779696,Subway,TN
Loretto,35.083278,-87.430996,Subway,TN
Memphis,35.068198,-90.059332,Subway,TN
Clarksville,36.577719,-87.300778,Subway,TN
Kingsport,36.557202,-82.60267,Subway,TN
Chattanooga,35.05265,-85.183563,Subway,TN
Oneida,36.528029,-84.493526,Subway,TN
DeLand,29.045905,-81.304684,Burger King,FL
Fremont,37.548317,-121.989071,Subway,CA
Tacoma,47.19175,-122.409493,Subway,WA
Rome,43.225649,-75.487435,Subway,NY
Brooklyn,40.622718,-74.025413,Subway,NY
Brooklyn,40.612944,-73.912249,Subway,NY
Bronx,40.897993,-73.86726,Subway,NY
Albany,42.665166,-73.79057,Subway,NY
Alden,42.894841,-78.511352,Subway,NY
Valdosta,30.893779,-83.319907,Subway,GA
Quitman,30.785286,-83.572137,Subway,GA
Oklahoma City,35.493517,-97.596452,Subway,OK
Perry,36.289447,-97.324031,Subway,OK
Mangum,34.871189,-99.502773,Subway,OK
Miami,36.900693,-94.877461,Subway,OK
Oklahoma City,35.319871,-97.493339,Subway,OK
Culver City,33.984452,-118.394607,Subway,CA
Mountain View,37.37333,-122.087798,Subway,CA
Davis,38.56098,-121.734688,Subway,CA
Newport Beach,33.615869000000004,-117.900471,Subway,CA
Green Bay,44.512901,-87.965565,Subway,WI
Delavan,42.627711,-88.62279,Subway,WI
Eau Claire,44.792969,-91.513081,Subway,WI
Eau Claire,44.841086,-91.524425,Subway,WI
Cedarburg,43.282614,-87.987201,Subway,WI
Chetek,45.3218,-91.659426,Subway,WI
Junction City,39.022217,-96.818939,Arbys,KS
Independence,37.227266,-95.707012,Arbys,KS
Independence,37.227266,-95.707012,Arbys,KS
Tucson,32.337175,-111.05709,Arbys,AZ
Tucson,32.134323,-110.997199,Arbys,AZ
Tucson,32.134323,-110.997199,Arbys,AZ
Taylor,34.477558,-110.084676,Arbys,AZ
Scottsdale,33.466232,-111.922231,Arbys,AZ
Sierra Vista,31.555069,-110.278089,Arbys,AZ
Tucson,32.207035,-110.837469,Arbys,AZ
Phoenix,33.480706,-111.998419,Arbys,AZ
Phoenix,33.480706,-111.998419,Arbys,AZ
Phoenix,33.480706,-111.998419,Arbys,AZ
Phoenix,33.377368,-112.070873,Arbys,AZ
Mesa,33.376815,-111.688373,Arbys,AZ
Mesa,33.376815,-111.688373,Arbys,AZ
Lake Havasu City,34.468086,-114.340307,Arbys,AZ
Phoenix,33.600633,-111.980157,Arbys,AZ
Mesa,33.416078,-111.685265,Arbys,AZ
Fountain Hills,33.568985,-111.709233,Arbys,AZ
Kernersville,36.088202,-80.064009,Subway,NC
Horse Shoe,35.343143,-82.55013,Subway,NC
Gastonia,35.208685,-81.164949,Subway,NC
Marshall,44.450394,-95.771693,Burger King,MN
Williams,35.257,-112.191842,Mcdonalds,AZ
Minneapolis,45.166263,-93.266177,Burger King,MN
Princeton,45.569641,-93.58621,Burger King,MN
Minneapolis,44.826803,-93.280057,Burger King,MN
Minneapolis,44.826803,-93.280057,Burger King,MN
South Saint Paul,44.892982,-93.033424,Burger King,MN
Moorhead,46.876058,-96.747416,Burger King,MN
Wickenburg,33.971666,-112.725207,Mcdonalds,AZ
Tucson,32.191204,-110.7904,Mcdonalds,AZ
Surprise,33.638752,-112.355201,Mcdonalds,AZ
Tucson,32.267251,-110.893249,Mcdonalds,AZ
Tucson,32.235881,-110.910004,Mcdonalds,AZ
Tucson,32.381356,-111.047645,Mcdonalds,AZ
Tucson,32.251125,-111.015037,Mcdonalds,AZ
Tucson,32.23654,-110.946007,Mcdonalds,AZ
Tempe,33.378656,-111.928668,Mcdonalds,AZ
Tempe,33.327487,-111.96308,Mcdonalds,AZ
Tempe,33.406786,-111.958707,Mcdonalds,AZ
Springerville,34.135345,-109.288102,Mcdonalds,AZ
Scottsdale,33.582458,-111.881603,Mcdonalds,AZ
Sun City,33.638154,-112.277091,Mcdonalds,AZ
Sierra Vista,31.554576,-110.279391,Mcdonalds,AZ
Show Low,34.198953,-110.017716,Mcdonalds,AZ
Scottsdale,33.538552,-111.883811,Mcdonalds,AZ
Show Low,34.250356,-110.028605,Mcdonalds,AZ
Sedona,34.863333,-111.801615,Mcdonalds,AZ
Lake Worth,26.576076,-80.054234,Burger King,FL
Arcadia,27.210078,-81.847515,Burger King,FL
Lady Lake,28.937775,-81.943735,Burger King,FL
Miami,25.766086,-80.193785,Burger King,FL
Miami,25.766086,-80.193785,Burger King,FL
Colorado Springs,38.874678,-104.815358,Arbys,CO
Colorado Springs,38.851725,-104.757808,Arbys,CO
Englewood,39.596381,-104.887213,Arbys,CO
Azusa,34.131646,-117.895856,Arbys,CA
Covina,34.088341,-117.907391,Arbys,CA
Vallejo,38.116224,-122.255252,Arbys,CA
Sacramento,38.625412,-121.498456,Arbys,CA
Beech Grove,39.721976,-86.101685,Subway,IN
Jasper,38.411671,-86.937953,Subway,IN
Little Rock,34.563092,-92.336634,Subway,AR
Little Rock,34.744844,-92.40608,Subway,AR
San Diego,32.776143,-117.154311,Subway,CA
Albany,37.88988,-122.298943,Subway,CA
Houston,29.985963,-95.336909,Subway,TX
Houston,29.75644,-95.367738,Subway,TX
Houston,29.723702,-95.419112,Subway,TX
Houston,29.659316,-95.508549,Subway,TX
Chico,39.772081,-121.872372,Subway,CA
Toledo,41.676695,-83.681827,Subway,OH
Xenia,39.684015,-83.939423,Subway,OH
North Canton,40.919338,-81.430099,Subway,OH
Dayton,39.661189,-84.126814,Subway,OH
Brunswick,41.23798,-81.877027,Subway,OH
New Philadelphia,40.491188,-81.454929,Subway,OH
Mount Gilead,40.548701,-82.844677,Subway,OH
Canton,40.795078,-81.434197,Subway,OH
Columbia,34.004844,-81.033376,Subway,SC
Central,34.699405,-82.752329,Subway,SC
Myrtle Beach,33.684688,-78.922277,Subway,SC
Piedmont,34.701822,-82.478311,Subway,SC
Avondale,33.456407,-112.274322,Subway,AZ
Peoria,33.565182,-112.252888,Subway,AZ
San Antonio,29.516969,-98.499215,Subway,TX
Aurora,41.351769,-81.385315,Subway,OH
Wooster,40.797895,-81.844461,Subway,OH
Cincinnati,39.217414,-84.548969,Subway,OH
Reynoldsburg,39.926986,-82.82929,Subway,OH
Cleveland,41.38233,-81.779879,Subway,OH
North Royalton,41.312568,-81.726857,Subway,OH
Harrison,39.259189,-84.796078,Subway,OH
Whitehouse,41.534852,-83.783101,Subway,OH
New Lexington,39.720165,-82.211421,Subway,OH
Springfield,39.940888,-83.832643,Subway,OH
Youngstown,41.028333,-80.631536,Subway,OH
Columbus,39.927822,-83.116875,Subway,OH
Pickerington,39.911661,-82.779148,Subway,OH
Rockmart,34.00942,-85.043112,Subway,GA
Rome,34.260517,-85.167731,Subway,GA
Ringgold,34.964037,-85.194384,Subway,GA
Peachtree Corners,33.962931,-84.207303,Subway,GA
Morrow,33.573278,-84.338408,Subway,GA
Ocilla,31.603923,-83.250291,Subway,GA
Marietta,33.950419,-84.550257,Subway,GA
Milledgeville,33.09945,-83.246563,Subway,GA
Clarksdale,34.185109,-90.588962,Subway,MS
Ogden,41.229661,-111.947981,Subway,UT
Greensboro,33.556208,-83.189489,Subway,GA
Eatonton,33.295471,-83.388788,Subway,GA
Douglasville,33.818054,-84.811134,Subway,GA
Douglasville,33.81784,-84.758485,Subway,GA
Dallas,33.912422,-84.834152,Subway,GA
Dallas,33.912422,-84.834152,Subway,GA
Conyers,33.669316,-84.040607,Subway,GA
Cordele,31.963673,-83.774534,Subway,GA
Brooklyn,40.642662,-73.979786,Subway,NY
Brooklyn,40.643839,-73.957869,Subway,NY
Brooklyn,40.587419,-73.954224,Subway,NY
Bronx,40.856544,-73.880765,Mcdonalds,NY
Bronx,40.856544,-73.880765,Mcdonalds,NY
Rochester,43.104559,-77.53872,Mcdonalds,NY
New York,40.715763,-74.005342,Mcdonalds,NY
Brooklyn,40.669493,-73.986949,Mcdonalds,NY
Albany,42.647323,-73.771918,Mcdonalds,NY
Syracuse,43.051788,-76.073175,Mcdonalds,NY
North Tonawanda,43.052286,-78.874572,Mcdonalds,NY
Buffalo,43.039404,-78.824138,Mcdonalds,NY
Hicksville,40.777408,-73.529924,Mcdonalds,NY
New York,40.71851,-74.001157,Mcdonalds,NY
Oneida,43.07858,-75.650915,Mcdonalds,NY
Roosevelt,40.679047,-73.589571,Mcdonalds,NY
Buffalo,42.921505,-78.829117,Mcdonalds,NY
Yonkers,40.982557,-73.828288,Mcdonalds,NY
Rochester,43.208938,-77.690354,Mcdonalds,NY
Frankfort,43.074814,-75.098029,Mcdonalds,NY
Brooklyn,40.598167,-73.961241,Mcdonalds,NY
Buffalo,42.91523,-78.892305,Mcdonalds,NY
Buffalo,42.91523,-78.892305,Mcdonalds,NY
East Meadow,40.72495,-73.54767,Mcdonalds,NY
Brooklyn,40.615378,-73.928896,Mcdonalds,NY
Walton,42.168416,-75.13309,Mcdonalds,NY
Buffalo,42.953142,-78.878979,Mcdonalds,NY
Philadelphia,39.99126,-75.101455,Subway,PA
Philadelphia,39.950944,-75.177461,Subway,PA
Phoenix,33.480693,-111.985721,Mcdonalds,AZ
Phoenix,33.494692,-112.237305,Mcdonalds,AZ
Phoenix,33.422931,-112.222937,Mcdonalds,AZ
Phoenix,33.640785,-112.066068,Mcdonalds,AZ
Phoenix,33.581495,-112.133607,Mcdonalds,AZ
Cave Creek,33.752474,-111.992502,Mcdonalds,AZ
Phoenix,33.480529,-112.183653,Mcdonalds,AZ
Phoenix,33.407506,-112.013806,Mcdonalds,AZ
Phoenix,33.407506,-112.013806,Mcdonalds,AZ
Phoenix,33.480432,-112.001577,Mcdonalds,AZ
Phoenix,33.683725,-112.107786,Mcdonalds,AZ
Phoenix,33.683725,-112.107786,Mcdonalds,AZ
Mesa,33.393527,-111.877841,Mcdonalds,AZ
Peoria,33.652458,-112.256095,Mcdonalds,AZ
Glendale,33.50931,-112.205085,Mcdonalds,AZ
Parker,34.150392,-114.289281,Mcdonalds,AZ
Peoria,33.681068,-112.238446,Mcdonalds,AZ
Nogales,31.366015,-110.941268,Mcdonalds,AZ
Mesa,33.366153,-111.858475,Mcdonalds,AZ
Mesa,33.423251,-111.753504,Mcdonalds,AZ
Pompano Beach,26.27378,-80.182444,Mcdonalds,FL
Kingman,35.21911,-114.00902,Mcdonalds,AZ
Glendale,33.553085,-112.17976,Mcdonalds,AZ
Glendale,33.567481,-112.18517,Mcdonalds,AZ
Glendale,33.596774,-112.16812,Mcdonalds,AZ
Clearwater Beach,27.971954,-82.829188,Mcdonalds,FL
Gilbert,33.378145,-111.722807,Mcdonalds,AZ
Miami Gardens,25.940154,-80.245387,Mcdonalds,FL
Clearwater,27.941432,-82.73105,Mcdonalds,FL
Cape Coral,26.562588,-81.949763,Mcdonalds,FL
Bartow,27.908842,-81.843377,Mcdonalds,FL
Brooksville,28.547807,-82.39926,Mcdonalds,FL
Boynton Beach,26.529084,-80.122351,Mcdonalds,FL
Boynton Beach,26.529084,-80.122351,Mcdonalds,FL
Bradenton,27.447452,-82.521838,Mcdonalds,FL
Bradenton,27.447631,-82.526681,Mcdonalds,FL
Bonifay,30.775649,-85.682274,Mcdonalds,FL
Boynton Beach,26.512765,-80.089648,Mcdonalds,FL
Apopka,28.708264,-81.508696,Mcdonalds,FL
Williamsburg,36.731453,-84.166241,Mcdonalds,KY
Sebastian,27.768329,-80.549402,Dairy Queen,FL
Pendleton,38.449673,-85.292527,Mcdonalds,KY
Louisville,38.233964,-85.640145,Mcdonalds,KY
Melbourne,28.079289,-80.661749,Mcdonalds,FL
Jacksonville,30.274359,-81.605969,Dairy Queen,FL
Jacksonville,30.274359,-81.605969,Dairy Queen,FL
Jacksonville,30.352039,-81.597484,Dairy Queen,FL
Tampa,28.065492,-82.577506,Dairy Queen,FL
Saint Petersburg,27.72055,-82.739416,Dairy Queen,FL
Warsaw,41.257038,-85.853286,Dairy Queen,IN
Loogootee,38.673105,-86.914665,Dairy Queen,IN
Elkhart,41.708771,-85.972073,Dairy Queen,IN
Winamac,41.044096,-86.598511,Dairy Queen,IN
Commerce,34.199907,-83.453673,Dairy Queen,GA
Atlanta,33.68375,-84.43814,Dairy Queen,GA
Mableton,33.818811,-84.583379,Dairy Queen,GA
Atlanta,33.923765,-84.338115,Dairy Queen,GA
Athens,33.951792,-83.363002,Dairy Queen,GA
Athens,33.954404,-83.390363,Dairy Queen,GA
Norcross,33.968101,-84.194945,Dairy Queen,GA
Nashville,31.203375,-83.250665,Dairy Queen,GA
Daytona Beach,29.16844,-81.000414,Dairy Queen,FL
Albany,42.730804,-73.847902,Mcdonalds,NY
Albany,42.730804,-73.847902,Mcdonalds,NY
Okeechobee,27.232108,-80.829964,Dairy Queen,FL
Bronx,40.869027,-73.830529,Mcdonalds,NY
New York,40.793822,-73.942653,Mcdonalds,NY
Peekskill,41.270387,-73.935556,Mcdonalds,NY
New York,40.752943,-73.980356,Mcdonalds,NY
Centereach,40.860103,-73.073078,Mcdonalds,NY
Niagara Falls,43.096744,-79.040168,Mcdonalds,NY
Niagara Falls,43.096744,-79.040168,Mcdonalds,NY
Brooklyn,40.679992,-73.939823,Mcdonalds,NY
East Aurora,42.767682,-78.629373,Mcdonalds,NY
New York,40.730757,-74.001115,Mcdonalds,NY
New York,40.762606,-73.983729,Mcdonalds,NY
North Babylon,40.748132,-73.324162,Mcdonalds,NY
Saint Clairsville,40.074273,-80.872536,Burger King,OH
Yonkers,40.927281,-73.895971,Mcdonalds,NY
Baldwin,40.679658,-73.614801,Mcdonalds,NY
Brooklyn,40.644484,-73.901599,Mcdonalds,NY
Rochester,43.166182,-77.661584,Mcdonalds,NY
Rochester,43.166182,-77.661584,Mcdonalds,NY
Bronx,40.835001,-73.851924,Mcdonalds,NY
Brooklyn,40.68925,-73.921634,Mcdonalds,NY
Central Islip,40.790177,-73.204118,Mcdonalds,NY
Buffalo,42.91018,-78.867002,Mcdonalds,NY
Cincinnati,39.286461,-84.449052,Burger King,OH
Saint Clairsville,40.077473,-80.917412,Burger King,OH
Independence,41.357151,-81.683976,Burger King,OH
Ottawa,41.019139,-84.050565,Burger King,OH
Cleveland,41.501359,-81.532359,Burger King,OH
Springboro,39.561884,-84.255956,Burger King,OH
Sidney,40.287771,-84.186855,Burger King,OH
Cleveland,41.405705,-81.734544,Burger King,OH
Newark,40.082344,-82.428053,Burger King,OH
Niles,41.212008,-80.756043,Burger King,OH
Louisville,40.843273,-81.259345,Burger King,OH
Napoleon,41.409842,-84.132003,Burger King,OH
Middlefield,41.462919,-81.091988,Burger King,OH
Cleveland,41.373042,-81.826072,Burger King,OH
Millersburg,40.541423,-81.916356,Burger King,OH
Medina,41.136223,-81.779399,Burger King,OH
Massillon,40.797232,-81.485695,Burger King,OH
Massillon,40.767534,-81.521895,Burger King,OH
Mansfield,40.774042,-82.4796,Burger King,OH
Lima,40.704117,-84.151401,Burger King,OH
Saint Petersburg,27.829294,-82.647538,Mcdonalds,FL
Saint Petersburg,27.806435,-82.637783,Mcdonalds,FL
Saint Petersburg,27.738689,-82.748632,Mcdonalds,FL
Saint Petersburg,27.736037,-82.679358,Mcdonalds,FL
Allendale,42.972482,-85.918407,Mcdonalds,MI
Quincy,30.587528,-84.594174,Mcdonalds,FL
Plant City,28.025358,-82.149999,Mcdonalds,FL
Orlando,28.577995,-81.474828,Mcdonalds,FL
Panama City,30.160954,-85.660335,Mcdonalds,FL
Pensacola,30.445386,-87.241036,Mcdonalds,FL
Pensacola,30.445386,-87.241036,Mcdonalds,FL
Hollywood,26.007641,-80.313251,Mcdonalds,FL
Palmetto,27.521155,-82.557637,Mcdonalds,FL
Palm Bay,27.998677,-80.642289,Mcdonalds,FL
Orlando,28.452664,-81.364823,Mcdonalds,FL
Detroit,42.316084,-83.106012,Mcdonalds,MI
Detroit,42.316084,-83.106012,Mcdonalds,MI
Utica,42.713055,-83.0353,Mcdonalds,MI
Kalamazoo,42.375811,-85.669864,Mcdonalds,MI
Clarkston,42.72123,-83.379183,Mcdonalds,MI
Burton,43.018913,-83.601876,Mcdonalds,MI
Kalamazoo,42.323392,-85.521877,Mcdonalds,MI
Pontiac,42.677419,-83.281868,Mcdonalds,MI
Saginaw,43.436839,-84.014903,Mcdonalds,MI
Lansing,42.769534,-84.600668,Mcdonalds,MI
Lansing,42.769534,-84.600668,Mcdonalds,MI
Grand Rapids,42.840913,-85.675757,Mcdonalds,MI
Frankenmuth,43.341157,-83.738219,Mcdonalds,MI
Auburn,43.59953,-84.089504,Mcdonalds,MI
Auburn,43.59953,-84.089504,Mcdonalds,MI
Grand Rapids,43.032558,-85.625024,Mcdonalds,MI
Sandusky,43.420893,-82.847988,Mcdonalds,MI
Hudsonville,42.854807,-85.861077,Mcdonalds,MI
Kalamazoo,42.270723,-85.640648,Mcdonalds,MI
Grand Rapids,42.972252,-85.774162,Mcdonalds,MI
Grand Rapids,42.972252,-85.774162,Mcdonalds,MI
Warren,42.535529,-83.065127,Mcdonalds,MI
Lincoln Park,42.222748,-83.181445,Mcdonalds,MI
Flint,43.033107,-83.639926,Mcdonalds,MI
Grand Rapids,42.912842,-85.656138,Mcdonalds,MI
Flint,43.060634,-83.758043,Mcdonalds,MI
Cedar Springs,43.219901,-85.567583,Mcdonalds,MI
Plymouth,42.395954,-83.435564,Mcdonalds,MI
Plymouth,42.395954,-83.435564,Mcdonalds,MI
Norway,45.787679,-87.915861,Mcdonalds,MI
Auburn Hills,42.701585,-83.306538,Mcdonalds,MI
Kalamazoo,42.252592,-85.53089,Mcdonalds,MI
Comstock Park,43.03444,-85.689646,Mcdonalds,MI
Saginaw,43.398503,-83.910855,Mcdonalds,MI
Saginaw,43.398503,-83.910855,Mcdonalds,MI
Trenton,42.141018,-83.209491,Mcdonalds,MI
Centreville,41.922309,-85.512076,Mcdonalds,MI
Royal Oak,42.515692,-83.184326,Mcdonalds,MI
Royal Oak,42.532578,-83.180447,Mcdonalds,MI
Saginaw,43.480022,-83.973321,Mcdonalds,MI
Lansing,42.662531,-84.591283,Mcdonalds,MI
Taylor,42.196571,-83.299251,Mcdonalds,MI
Wyoming,42.91381,-85.732416,Mcdonalds,MI
Grand Rapids,43.01017,-85.688741,Mcdonalds,MI
Taylor,42.197773,-83.259322,Mcdonalds,MI
Traverse City,44.733567,-85.624777,Mcdonalds,MI
Saint Clair Shores,42.46653,-82.896297,Mcdonalds,MI
Trenton,42.138674,-83.248653,Mcdonalds,MI
Keego Harbor,42.612451,-83.328088,Mcdonalds,MI
Howell,42.614761,-83.959432,Mcdonalds,MI
Chicago,41.89245,-87.628735,Subway,IL
Chicago,41.787146,-87.70338,Subway,IL
San Francisco,37.788837,-122.412042,Subway,CA
Chicago,41.954922,-87.679044,Subway,IL
Chicago,41.997572,-87.698863,Subway,IL
Burlingame,37.595666,-122.385303,Subway,CA
San Francisco,37.79422,-122.404783,Subway,CA
San Francisco,37.794523,-122.39666,Subway,CA
Lincoln Park,42.265307,-83.173453,Subway,MI
San Francisco,37.792501,-122.393985,Subway,CA
San Francisco,37.787813,-122.420036,Subway,CA
Detroit,42.392481,-83.005664,Subway,MI
Northridge,34.257252,-118.539464,Subway,CA
Santa Rosa,38.446073,-122.686612,Subway,CA
El Sobrante,37.978821,-122.295056,Subway,CA
Rohnert Park,38.361959,-122.714397,Subway,CA
Richmond,37.936016,-122.325561,Subway,CA
Columbus,39.954176,-83.097808,Mcdonalds,OH
Waynesville,39.526698,-84.089636,Mcdonalds,OH
Columbus,39.973152,-82.906317,Mcdonalds,OH
Columbus,40.037171,-82.962908,Mcdonalds,OH
Akron,41.010905,-81.554322,Mcdonalds,OH
Cleveland,41.469835,-81.704819,Mcdonalds,OH
Barberton,41.025814,-81.639951,Mcdonalds,OH
Dayton,39.725296,-84.049767,Mcdonalds,OH
Columbus,39.946927,-82.915931,Mcdonalds,OH
Martins Ferry,40.095808,-80.722776,Mcdonalds,OH
Wickliffe,41.584368,-81.479892,Mcdonalds,OH
Delaware,40.289973,-83.067971,Mcdonalds,OH
Zanesville,39.972631,-82.011199,Mcdonalds,OH
Columbus,40.065343,-83.092071,Mcdonalds,OH
Girard,41.142953,-80.721882,Mcdonalds,OH
Girard,41.142953,-80.721882,Mcdonalds,OH
Oberlin,41.285184,-82.217596,Mcdonalds,OH
Lima,40.704726,-84.151404,Mcdonalds,OH
Bedford,41.367712,-81.509929,Mcdonalds,OH
Middletown,39.526707,-84.383341,Mcdonalds,OH
Cincinnati,39.280373,-84.56379,Mcdonalds,OH
Louisville,40.837971,-81.259615,Mcdonalds,OH
Springfield,39.896227,-83.811167,Mcdonalds,OH
Byesville,39.970124,-81.53112,Mcdonalds,OH
Huron,41.407804,-82.578144,Mcdonalds,OH
Newark,40.057139,-82.402302,Mcdonalds,OH
Batavia,39.082663,-84.150118,Mcdonalds,OH
Newton Falls,41.188412,-80.977783,Mcdonalds,OH
Lima,40.730709,-84.069748,Mcdonalds,OH
Findlay,41.053452,-83.610926,Mcdonalds,OH
Napoleon,41.403644,-84.132007,Mcdonalds,OH
Toronto,40.451079,-80.608551,Mcdonalds,OH
Fremont,41.355886,-83.134343,Mcdonalds,OH
Bellefontaine,40.334568,-83.761671,Mcdonalds,OH
Soda Springs,42.654591,-111.598356,Subway,ID
Meridian,43.598305,-116.392619,Subway,ID
Blackfoot,43.19852,-112.35754,Subway,ID
Ponderay,48.299045,-116.547822,Subway,ID
Post Falls,47.713801,-116.907026,Subway,ID
Ririe,43.608755,-111.800161,Subway,ID
Meridian,43.61985,-116.37078700000001,Subway,ID
Meridian,43.604688,-116.416375,Subway,ID
Twin Falls,42.548614,-114.454439,Subway,ID
Middleton,43.706446,-116.621738,Subway,ID
Indio,33.756593,-116.302303,Subway,CA
Greensboro,36.131683,-79.798913,Mcdonalds,NC
Newland,36.081696,-81.928762,Mcdonalds,NC
Murphy,35.116259,-83.939657,Mcdonalds,NC
Charlotte,35.172458,-80.850849,Mcdonalds,NC
Ocean Springs,30.409148,-88.759367,Mcdonalds,MS
Chapel Hill,35.910663,-79.062139,Mcdonalds,NC
Jacksonville,34.768507,-77.384327,Mcdonalds,NC
Kenly,35.594032,-78.129035,Mcdonalds,NC
Jackson,32.355719,-90.179899,Mcdonalds,MS
Battleboro,36.023494,-77.769484,Mcdonalds,NC
Fayetteville,35.1128,-78.880074,Mcdonalds,NC
Fayetteville,35.1128,-78.880074,Mcdonalds,NC
Greensboro,36.039652,-79.848777,Mcdonalds,NC
Raleigh,35.863464,-78.711219,Mcdonalds,NC
Louisburg,36.094869,-78.297351,Mcdonalds,NC
Farmville,35.617254,-77.604836,Mcdonalds,NC
Charlotte,35.213292,-80.781724,Mcdonalds,NC
Charlotte,35.213292,-80.781724,Mcdonalds,NC
Raleigh,35.820417,-78.591131,Mcdonalds,NC
Billings,45.784209,-108.590538,Mcdonalds,MT
Yucaipa,34.034167,-117.069777,Subway,CA
Drumright,35.988456,-96.592597,Subway,OK
Oklahoma City,35.387596,-97.441224,Subway,OK
Henryetta,35.439904,-95.97344,Subway,OK
Claremore,36.321839,-95.610373,Subway,OK
Enid,36.39212,-97.890148,Subway,OK
Tiffin,41.111635,-83.20495,Mcdonalds,OH
Gallipolis,38.820383,-82.179082,Mcdonalds,OH
Akron,41.083624,-81.581675,Mcdonalds,OH
Zanesville,39.915259,-82.013678,Mcdonalds,OH
Marion,40.581126,-83.085997,Mcdonalds,OH
Columbus,39.956499,-83.042255,Mcdonalds,OH
Millersburg,40.521968,-81.921236,Mcdonalds,OH
Toledo,41.722955,-83.511728,Mcdonalds,OH
Toledo,41.630987,-83.556453,Mcdonalds,OH
Ashland,40.853995,-82.336519,Mcdonalds,OH
Toledo,41.663473,-83.537284,Mcdonalds,OH
Hamilton,39.426065,-84.596598,Mcdonalds,OH
Dayton,39.785259,-84.188891,Mcdonalds,OH
Columbus,40.000059,-82.930458,Mcdonalds,OH
Lancaster,39.71409,-82.573565,Mcdonalds,OH
Marion,40.563441,-83.119687,Mcdonalds,OH
Swanton,41.581166,-83.880973,Mcdonalds,OH
Washington Court House,39.526723,-83.454745,Mcdonalds,OH
Washington Court House,39.526723,-83.454745,Mcdonalds,OH
North Canton,40.891462,-81.406256,Mcdonalds,OH
Newark,40.085305,-82.427595,Mcdonalds,OH
Canton,40.811752,-81.39709,Mcdonalds,OH
Saint Marys,40.550896,-84.40457,Mcdonalds,OH
Indianapolis,39.758928,-86.230288,Subway,IN
Indianapolis,39.78335,-86.064272,Subway,IN
Indianapolis,39.708241,-86.143684,Subway,IN
Port Allen,30.534428,-91.410276,Mcdonalds,LA
Port Allen,30.449368,-91.244576,Mcdonalds,LA
Ponchatoula,30.437705,-90.45244,Mcdonalds,LA
Ponchatoula,30.437705,-90.45244,Mcdonalds,LA
New Orleans,29.989079,-90.058282,Mcdonalds,LA
New Orleans,29.966245,-90.088213,Mcdonalds,LA
Monroe,32.53774,-92.078675,Mcdonalds,LA
Metairie,29.977312,-90.203482,Mcdonalds,LA
Metairie,30.000644,-90.125751,Mcdonalds,LA
Many,31.567605,-93.48866,Mcdonalds,LA
Mandeville,30.363813,-90.062168,Mcdonalds,LA
Lake Charles,30.198265,-93.213693,Mcdonalds,LA
Lake Charles,30.18091,-93.218535,Mcdonalds,LA
Lafayette,30.147333,-92.096528,Mcdonalds,LA
Lake Charles,30.227566,-93.180034,Mcdonalds,LA
Kenner,30.022967,-90.269387,Mcdonalds,LA
Houma,29.570062,-90.722815,Mcdonalds,LA
Haughton,32.546898,-93.541293,Mcdonalds,LA
Gonzales,30.239388,-90.914676,Mcdonalds,LA
Farmerville,32.780256,-92.405515,Mcdonalds,LA
Tallahassee,30.427688,-84.214265,Taco Bell,FL
Oakland,37.79375,-122.20116,Taco Bell,CA
Pompano Beach,26.231959,-80.128706,Taco Bell,FL
Pompano Beach,26.231959,-80.128706,Taco Bell,FL
Miami,25.810382,-80.189208,Taco Bell,FL
Miami,25.810382,-80.189208,Taco Bell,FL
Saint Petersburg,27.805096,-82.638947,Taco Bell,FL
Las Vegas,36.124552,-115.279373,Taco Bell,NV
Las Vegas,36.124552,-115.279373,Taco Bell,NV
San Luis Obispo,35.287564,-120.664691,Taco Bell,CA
Maysville,38.626929,-83.790875,Taco Bell,KY
Memphis,35.039655,-90.069555,Taco Bell,TN
Yorkville,43.114231,-75.27634,Taco Bell,NY
Saint Clair,40.72859,-76.193586,Taco Bell,PA
Louisville,38.137892,-85.681627,Taco Bell,KY
Towson,39.403864,-76.59874,Chick Fil-A,MD
Houston,29.736944,-95.517753,Chick Fil-A,TX
New Port Richey,28.221813,-82.734267,Taco Bell,FL
Lexington,34.014416,-81.154322,Taco Bell,SC
Memphis,35.030769,-90.024765,Taco Bell,TN
Fair Oaks,38.644489,-121.272724,Taco Bell,CA
Fair Oaks,38.644489,-121.272724,Taco Bell,CA
Abilene,32.451319,-99.780855,Taco Bell,TX
Lansing,42.74057,-84.610942,Taco Bell,MI
Dallas,32.662350000000004,-96.890538,Taco Bell,TX
Chantilly,38.886621,-77.44445,Taco Bell,VA
Henrico,37.529229,-77.358994,Taco Bell,VA
Lake Havasu City,34.475184,-114.344666,Taco Bell,AZ
Killeen,31.095156,-97.805963,Taco Bell,TX
Killeen,31.095156,-97.805963,Taco Bell,TX
Lihue,21.972648,-159.378066,Taco Bell,HI
Indianapolis,39.693524,-86.149333,Taco Bell,IN
Chesterton,41.617205,-87.044616,Taco Bell,IN
Puyallup,47.185741,-122.293958,Taco Bell,WA
Warrenton,38.819392,-91.141411,Taco Bell,MO
San Dimas,34.106839,-117.81915,Taco Bell,CA
Mount Ephraim,39.888198,-75.088329,Taco Bell,NJ
Mount Ephraim,39.888198,-75.088329,Taco Bell,NJ
Mount Ephraim,39.888198,-75.088329,Taco Bell,NJ
Johnstown,40.335515,-104.924456,Taco Bell,CO
Martinsville,36.696902,-79.87424,Taco Bell,VA
Ada,34.779223,-96.669591,Taco Bell,OK
Roseville,38.760063,-121.310523,Taco Bell,CA
Auburn,47.321122,-122.22367,Taco Bell,WA
Grand Rapids,43.05429,-85.580477,Taco Bell,MI
Saginaw,43.437241,-84.016027,Taco Bell,MI
Acworth,34.076137,-84.676287,Taco Bell,GA
Westbury,40.747139,-73.594456,Taco Bell,NY
Orlando,28.471563,-81.450955,Taco Bell,FL
Warner Robins,32.628151,-83.61341,Taco Bell,GA
Warner Robins,32.628151,-83.61341,Taco Bell,GA
Ferdinand,38.210512,-86.864543,Taco Bell,IN
Tallahassee,30.460075,-84.356611,Taco Bell,FL
Independence,39.043623,-94.415663,Taco Bell,MO
Woodbridge,38.646533,-77.337168,Taco Bell,VA
Woodbridge,38.646533,-77.337168,Taco Bell,VA
Pullman,46.738732,-117.171069,Taco Bell,WA
Johnson Creek,43.082097,-88.762685,Taco Bell,WI
Cedar Springs,43.220365,-85.563948,Taco Bell,MI
Evans,33.534703,-82.12697,Taco Bell,GA
Indianapolis,39.867174,-86.121708,Taco Bell,IN
Catonsville,39.284038,-76.750477,Taco Bell,MD
Cleburne,32.345524,-97.394348,Taco Bell,TX
Cleburne,32.345524,-97.394348,Taco Bell,TX
Cleburne,32.345524,-97.394348,Taco Bell,TX
Asheboro,35.687322,-79.823323,Taco Bell,NC
Alexandria,31.295835,-92.479428,Taco Bell,LA
Gas City,40.480863,-85.552586,Taco Bell,IN
Bluffton,40.74614,-85.170358,Taco Bell,IN
Bluffton,40.74614,-85.170358,Taco Bell,IN
Hialeah,25.933395,-80.294898,Subway,FL
Miami,25.874084,-80.170335,Subway,FL
Miami,25.80406,-80.189301,Subway,FL
Miami,25.747802,-80.331984,Subway,FL
Miami,25.811694,-80.355091,Subway,FL
Indianapolis,39.699512,-86.082572,Subway,IN
Indianapolis,39.653101,-86.139137,Subway,IN
Atlanta,33.805324,-84.367403,Subway,GA
Allendale,42.972375,-85.938672,Subway,MI
Battle Creek,42.29859,-85.210229,Subway,MI
Canton,42.270947,-83.491198,Subway,MI
Miami,25.772504,-80.233968,Burger King,FL
Hollywood,26.032459,-80.142921,Burger King,FL
Gainesville,29.666616,-82.324733,Burger King,FL
Kissimmee,28.29271,-81.365539,Burger King,FL
Kissimmee,28.344865,-81.36604,Burger King,FL
Miami,25.946643,-80.205796,Burger King,FL
North Miami Beach,25.944633,-80.12117,Burger King,FL
Fort Lauderdale,26.137758,-80.124733,Burger King,FL
Winnsboro,32.957748,-95.29271,Subway,TX
Pasadena,29.681262,-95.150041,Subway,TX
Paris,33.661885,-95.505586,Subway,TX
Snyder,32.702835,-100.919222,Subway,TX
Princeton,33.17503,-96.503191,Subway,TX
Weatherford,32.750332,-97.724647,Subway,TX
Abilene,32.432227,-99.756147,Subway,TX
Winslow,35.017229,-110.683072,Dairy Queen,AZ
Garden Grove,33.774132,-117.92019,Dairy Queen,CA
Phoenix,33.602194,-112.03647,Dairy Queen,AZ
Phoenix,33.602194,-112.03647,Dairy Queen,AZ
Yuma,32.663295,-114.444157,Dairy Queen,AZ
Terryville,41.679717,-73.019311,Subway,CT
Niantic,41.323079,-72.194393,Subway,CT
Manchester,41.766827,-72.570593,Subway,CT
Hamden,41.372832,-72.916912,Subway,CT
Hartford,41.790279,-72.660763,Subway,CT
Farmington,41.745027,-72.861334,Subway,CT
Glastonbury,41.713517,-72.60557,Subway,CT
Melrose Park,41.907023,-87.896725,Subway,IL
Riverside,41.84472,-87.813395,Subway,IL
Niles,42.025157,-87.801356,Subway,IL
Chesterfield,38.667425,-90.60092,Subway,MO
Hollister,36.606849,-93.233622,Subway,MO
Monett,36.913344,-93.914957,Subway,MO
Branson,36.63967,-93.259995,Subway,MO
Rolla,37.938161,-91.777348,Subway,MO
New Paltz,41.743814,-74.072672,Burger King,NY
Mount Kisco,41.215869,-73.719627,Burger King,NY
New City,41.141787,-73.990441,Burger King,NY
Merrick,40.654022,-73.558266,Burger King,NY
Merrick,40.654022,-73.558266,Burger King,NY
Long Beach,40.58838,-73.663894,Burger King,NY
Liverpool,43.185498,-76.234803,Burger King,NY
Liberty,41.78515,-74.729017,Burger King,NY
Jericho,40.784274,-73.533208,Burger King,NY
Ithaca,42.436049,-76.463555,Burger King,NY
Cave Creek,33.798642,-111.976421,Subway,AZ
Tucson,32.306803,-110.845362,Subway,AZ
Glendale,33.538574,-112.183513,Subway,AZ
Phoenix,33.870849,-112.144688,Subway,AZ
San Manuel,32.602889,-110.631785,Subway,AZ
Gilbert,33.304919,-111.743948,Subway,AZ
Gilbert,33.304919,-111.743948,Subway,AZ
Peoria,33.667951,-112.279887,Subway,AZ
Glendale,33.653132,-112.168263,Subway,AZ
Columbia,34.094411,-80.924683,Subway,SC
Aiken,33.513196,-81.733406,Subway,SC
Greenville,34.83808,-82.278041,Subway,SC
Oviedo,28.655664,-81.209596,Subway,FL
Ocala,29.168712,-82.053666,Subway,FL
Wichita,37.631227,-97.316584,Subway,KS
Ulysses,37.576528,-101.36475,Subway,KS
Pratt,37.645865,-98.724356,Subway,KS
Olathe,38.912221,-94.768154,Subway,KS
Neodesha,37.417526,-95.682632,Subway,KS
Tallahassee,30.500989,-84.329235,Subway,FL
Crawfordville,30.175321,-84.375041,Subway,FL
Palatka,29.647211,-81.629787,Subway,FL
Tallahassee,30.42942,-84.240759,Subway,FL
Tallahassee,30.483326,-84.236392,Subway,FL
Whiteland,39.55156,-86.044498,Arbys,IN
Ruston,32.550723,-92.610384,Arbys,LA
Andover,37.678789,-97.134054,Arbys,KS
Cloquet,46.712184,-92.460117,Arbys,MN
Columbus,39.981207,-82.822382,Arbys,OH
Holland,41.611694,-83.701789,Arbys,OH
Verona,40.484691,-79.819177,Arbys,PA
Goose Creek,33.036137,-80.064236,Arbys,SC
Westerville,40.147121,-82.922973,Arbys,OH
Morehead City,34.738703,-76.806957,Arbys,NC
Harrisburg,40.279585,-76.812669,Arbys,PA
Harrisburg,40.279585,-76.812669,Arbys,PA
Wooster,40.803141,-81.934837,Arbys,OH
Saint Paul,44.948201,-93.092676,Arbys,MN
Erie,42.089303,-80.135565,Arbys,PA
Walla Walla,46.075014,-118.311063,Burger King,WA
Tacoma,47.189191,-122.460926,Burger King,WA
Snohomish,47.930048,-122.100946,Burger King,WA
Seattle,47.469606,-122.338919,Burger King,WA
Seattle,47.585305,-122.303438,Burger King,WA
Longview,46.147527,-122.962214,Burger King,WA
Moses Lake,47.102742,-119.249674,Burger King,WA
Lacey,46.996547,-122.822565,Burger King,WA
Ephrata,47.307533,-119.561141,Burger King,WA
Ephrata,47.307533,-119.561141,Burger King,WA
Chehalis,46.605372,-122.904392,Burger King,WA
Houston,29.773526,-95.307955,Burger King,TX
Houston,29.736929,-95.532705000000007,Burger King,TX
Houston,29.699264,-95.517227,Burger King,TX
Houston,29.699264,-95.517227,Burger King,TX
Houston,29.688837,-95.644394,Burger King,TX
Mabank,32.330925,-96.112072,Burger King,TX
Ennis,32.329153,-96.624465,Burger King,TX
El Paso,31.754262,-106.344422,Burger King,TX
El Paso,31.785568,-106.413835,Burger King,TX
El Paso,31.904294,-106.422444,Burger King,TX
Dallas,32.658567,-96.890792,Burger King,TX
Dallas,32.83151,-96.839707,Burger King,TX
Dallas,32.909672,-96.857522,Burger King,TX
Brownsville,25.921239,-97.473976,Burger King,TX
Cedar Park,30.517742,-97.828697,Burger King,TX
Carrollton,33.012773,-96.887404,Burger King,TX
Bonham,33.552932,-96.209495,Burger King,TX
Ennis,32.333552,-96.616592,Taco Bell,TX
Ennis,32.333552,-96.616592,Taco Bell,TX
Ennis,32.333552,-96.616592,Taco Bell,TX
El Paso,31.680665,-106.313785,Taco Bell,TX
El Paso,31.872382,-106.426598,Taco Bell,TX
El Paso,31.829729,-106.527944,Taco Bell,TX
Dumas,35.850968,-101.973341,Taco Bell,TX
Dallas,32.746076,-96.683491,Taco Bell,TX
Dallas,32.863738,-96.895962,Taco Bell,TX
Del Rio,29.380648,-100.904813,Taco Bell,TX
Dallas,32.91046,-96.735539,Taco Bell,TX
Corpus Christi,27.707568,-97.388725,Taco Bell,TX
Corpus Christi,27.666015,-97.283857,Taco Bell,TX
Canton,32.576285,-95.855334,Taco Bell,TX
Beaumont,30.127462,-94.15964,Taco Bell,TX
Austin,30.348699,-97.735013,Taco Bell,TX
Boise,43.590266,-116.286593,Burger King,ID
Des Moines,41.585872,-93.625377,Burger King,IA
Kapolei,21.33777,-158.078537,Burger King,HI
Pocatello,42.914956,-112.466129,Burger King,ID
Idaho Falls,43.482138,-111.987244,Burger King,ID
Mason City,43.148534,-93.235558,Burger King,IA
Hanford,36.328359,-119.65648,Arbys,CA
Jasper,34.465158,-84.450791,Burger King,GA
Waycross,31.206326,-82.336911,Burger King,GA
Dacula,34.070523,-83.914291,Arbys,GA
Marietta,33.946693,-84.622752,Arbys,GA
Fort Lauderdale,26.20309,-80.156324,Arbys,FL
Largo,27.893232,-82.72989,Arbys,FL
Port Richey,28.309353,-82.699408,Arbys,FL
Sebring,27.4684,-81.43803,Arbys,FL
Plant City,27.988519,-82.123059,Arbys,FL
Tampa,27.996739,-82.390059,Arbys,FL
Tampa,28.069531,-82.432806,Arbys,FL
Tampa,28.069531,-82.432806,Arbys,FL
Plant City,28.034914,-82.105721,Arbys,FL
Miami,25.925262,-80.170428,Arbys,FL
Miami,25.7002,-80.380116,Arbys,FL
West Palm Beach,26.649148,-80.112916,Arbys,FL
Jonesborough,36.297597,-82.475145,Subway,TN
Alamogordo,32.899849,-105.948848,Subway,NM
Albuquerque,35.073095,-106.533041,Subway,NM
Rome,34.253471,-85.163758,Burger King,GA
Quitman,30.785419,-83.57171,Burger King,GA
Marietta,33.980527,-84.558209,Burger King,GA
Macon,32.856981,-83.617427,Burger King,GA
Metter,32.375487,-82.064617,Burger King,GA
Perry,32.470969,-83.743028,Burger King,GA
Tampa,27.945225,-82.34059,Burger King,FL
Fort Pierce,27.438279,-80.348961,Burger King,FL
Orlando,28.606635,-81.394575,Burger King,FL
Pompano Beach,26.239939,-80.252497,Burger King,FL
Miami,25.759621,-80.367717,Burger King,FL
Jacksonville,30.430426,-81.660894,Burger King,FL
Kissimmee,28.146557,-81.447636,Burger King,FL
Hollywood,26.023175,-80.264633,Burger King,FL
Hollywood,26.023175,-80.264633,Burger King,FL
Tampa,28.05406,-82.450714,Burger King,FL
Rockford,42.241612,-88.976863,Arbys,IL
Niles,42.040539,-87.801283,Arbys,IL
Niles,42.040539,-87.801283,Arbys,IL
Minooka,41.460683,-88.272479,Arbys,IL
Moline,41.467888,-90.506268,Arbys,IL
Litchfield,39.176742,-89.675725,Arbys,IL
Litchfield,39.176742,-89.675725,Arbys,IL
Grayslake,42.339357,-88.000874,Arbys,IL
Godfrey,38.946371,-90.190288,Arbys,IL
Dwight,41.112431,-88.414538,Arbys,IL
Decatur,39.901745,-88.95457,Arbys,IL
Danville,40.174635,-87.630925,Arbys,IL
Winamac,41.060807,-86.603056,Arbys,IN
Winchester,40.172474,-84.964967,Arbys,IN
Warsaw,41.234134,-85.807519,Arbys,IN
Vincennes,38.65964,-87.508875,Arbys,IN
Noblesville,40.043401,-85.995922,Arbys,IN
New Albany,38.316862,-85.803628,Arbys,IN
New Albany,38.339995,-85.816009,Arbys,IN
New Albany,38.339995,-85.816009,Arbys,IN
Monticello,40.75538,-86.764676,Arbys,IN
Logansport,40.751321,-86.374889,Arbys,IN
Marion,40.569524,-85.676413,Arbys,IN
Marion,40.543079,-85.674315000000007,Arbys,IN
Madison,38.771439,-85.414048,Arbys,IN
Lawrenceburg,39.085715,-84.879761,Arbys,IN
Lafayette,40.394804,-86.855048,Arbys,IN
Kokomo,40.505337,-86.112046,Arbys,IN
Kokomo,40.505337,-86.112046,Arbys,IN
Kokomo,40.431573,-86.126569,Arbys,IN
Jasper,38.424282,-86.938409,Arbys,IN
Indianapolis,39.695671,-86.081916,Arbys,IN
Indianapolis,39.829132,-86.042981,Arbys,IN
Indianapolis,39.636001,-86.123737,Arbys,IN
Wheatland,42.048001,-104.964156,Arbys,WY
Sheridan,44.778887,-106.941995,Arbys,WY
Rock Springs,41.57501,-109.250518,Arbys,WY
Columbia,38.963767,-92.289441,Mcdonalds,MO
Houston,37.312575,-91.96038,Mcdonalds,MO
Hannibal,39.721645,-91.391994,Mcdonalds,MO
Harrisonville,38.663059,-94.366208,Mcdonalds,MO
Florissant,38.812397,-90.349045,Mcdonalds,MO
Grandview,38.899145,-94.532759,Mcdonalds,MO
Kansas City,39.207477,-94.547975,Mcdonalds,MO
De Soto,38.14201,-90.57624,Mcdonalds,MO
Columbia,38.959957,-92.371307,Mcdonalds,MO
Chesterfield,38.64361,-90.566835,Mcdonalds,MO
Butler,38.257002,-94.349764,Mcdonalds,MO
Butler,38.257002,-94.349764,Mcdonalds,MO
Arnold,38.405791,-90.376785,Mcdonalds,MO
Blue Springs,39.032359,-94.305142,Mcdonalds,MO
Wyoming,45.336744,-93.008866,Mcdonalds,MN
Wyoming,45.336744,-93.008866,Mcdonalds,MN
Belton,38.813428,-94.507282,Mcdonalds,MO
Ashland,38.77437,-92.254355,Mcdonalds,MO
Ashland,38.77437,-92.254355,Mcdonalds,MO
Willmar,45.117295,-95.042617,Mcdonalds,MN
Saint Paul,44.907849,-93.081583,Mcdonalds,MN
Wayzata,44.970637,-93.495073,Mcdonalds,MN
Duluth,46.739483,-92.166527,Mcdonalds,MN
Waseca,44.093175,-93.507109,Mcdonalds,MN
Waconia,44.838715,-93.800805,Mcdonalds,MN
Two Harbors,47.025601,-91.68191,Mcdonalds,MN
Wadena,46.442379,-95.13635,Mcdonalds,MN
Saint Paul,44.955483,-93.110248,Mcdonalds,MN
Mansfield,40.773029,-82.481497,Subway,OH
Elyria,41.362957,-82.101028,Subway,OH
Parkville,39.372186,-76.544235,Subway,MD
Fargo,46.905119,-96.801188,Subway,ND
Valley City,46.920859,-98.018122,Subway,ND
Wahpeton,46.263898,-96.601288,Subway,ND
Van Nuys,34.187062,-118.466683,Subway,CA
Van Nuys,34.209646,-118.497715,Subway,CA
Sun Valley,34.228381,-118.366249,Subway,CA
Rosemead,34.075067,-118.072855,Subway,CA
Indianapolis,39.778795,-86.292202,Arbys,IN
Indianapolis,39.743892,-86.278602,Arbys,IN
Fort Wayne,41.096316,-85.154096,Arbys,IN
Fort Wayne,41.096316,-85.154096,Arbys,IN
Huntington,40.899935,-85.506514,Arbys,IN
Indianapolis,39.926617,-86.15644,Arbys,IN
Greencastle,39.64671,-86.837237,Arbys,IN
Fort Wayne,41.07529,-85.146929,Arbys,IN
Fort Wayne,41.07529,-85.146929,Arbys,IN
Fort Wayne,41.030926,-85.259507,Arbys,IN
Fort Wayne,41.020676,-85.168742,Arbys,IN
Fort Wayne,41.133144,-85.136897,Arbys,IN
Fishers,39.977657,-86.003033,Arbys,IN
Columbus,39.200748,-85.962185,Arbys,IN
Anderson,40.061537,-85.652108,Arbys,IN
Auburn,41.36617,-85.078917,Arbys,IN
Avon,39.763513,-86.383805,Arbys,IN
Springfield,39.7628,-89.607772,Arbys,IL
Washington,40.692523,-89.48303,Arbys,IL
Urbana,40.117805,-88.2048,Arbys,IL
Springfield,39.763168,-89.707186,Arbys,IL
Springfield,39.799681,-89.68609,Arbys,IL
Albany,42.681358,-73.73074,Subway,NY
Hemet,33.74778,-116.871389,Subway,CA
Lafayette,37.896228,-122.1034,Subway,CA
Moraga,37.860272,-122.125475,Subway,CA
Solana Beach,32.992226,-117.270343,Subway,CA
Roseville,38.744203,-121.265978,Subway,CA
Lancaster,34.675128,-118.114345,Subway,CA
Merced,37.321317,-120.468713,Subway,CA
Lancaster,34.695787,-118.171716,Subway,CA
La Habra,33.931872,-117.93304,Subway,CA
Hacienda Heights,34.010598,-117.963551,Subway,CA
La Habra,33.939489,-117.942149,Subway,CA
La Crescenta,34.233223,-118.254552,Subway,CA
Salem,44.879383,-123.028601,Subway,OR
Denver,39.667042,-105.150579,Subway,CO
Manitou Springs,38.856714,-104.898885,Subway,CO
Yorktown,37.121834,-76.457525,Subway,VA
Hillsdale,41.930959,-84.641427,Subway,MI
Mount Pleasant,43.611471,-84.741274,Subway,MI
Midland,43.641274,-84.249381,Subway,MI
Newaygo,43.405221,-85.798853,Subway,MI
Melvindale,42.281607,-83.187847,Subway,MI
Wixom,42.544057,-83.537226,Subway,MI
Jackson,42.267949,-84.403886,Subway,MI
Evans,40.383037,-104.715055,Subway,CO
Logan,37.848136,-82.000102,Taco Bell,WV
Rochester,42.638053,-83.131112,Taco Bell,MI
Redford,42.37105,-83.303073,Taco Bell,MI
Wadsworth,41.049465,-81.72825,Taco Bell,OH
San Jose,37.369631,-121.915647,Subway,CA
San Diego,32.951205,-117.107693,Subway,CA
Myrtle Beach,33.626315,-78.966956,Mcdonalds,SC
North Myrtle Beach,33.797642,-78.742227,Mcdonalds,SC
Greer,34.948917,-82.234116,Mcdonalds,SC
Spartanburg,35.022674,-81.894908,Mcdonalds,SC
Spartanburg,34.921095,-81.886344,Mcdonalds,SC
Saint George,33.194955,-80.601662,Mcdonalds,SC
North Augusta,33.521008,-81.955464,Mcdonalds,SC
Charleston,32.963466,-80.043024,Mcdonalds,SC
Orangeburg,33.555368,-80.825857,Mcdonalds,SC
Lexington,33.986973,-81.243579,Mcdonalds,SC
Lexington,33.97353,-81.154931,Mcdonalds,SC
Lugoff,34.22599,-80.679112,Mcdonalds,SC
Johnsonville,33.809554,-79.442454,Mcdonalds,SC
Greer,34.915383,-82.237359,Mcdonalds,SC
Troy,42.535175,-83.106141,Sonic,MI
Austin,30.236888,-97.721834,Burger King,TX
Lynchburg,37.304998,-79.285456,Burger King,VA
Union Grove,42.681046,-88.053882,Burger King,WI
Wisconsin Dells,43.62319,-89.79383,Burger King,WI
King George,38.340674,-77.073788,Burger King,VA
Westfield,43.888614,-89.485022,Burger King,WI
Waunakee,43.192028,-89.461891,Burger King,WI
Oconto Falls,44.882759,-88.144544,Burger King,WI
Rhinelander,45.633351,-89.408019,Burger King,WI
Milton,42.76909,-88.937686,Burger King,WI
Reedsburg,43.532467,-89.981502,Burger King,WI
New London,44.402053,-88.743441,Burger King,WI
Menasha,44.230574,-88.425395,Burger King,WI
Madison,43.101665,-89.34748,Burger King,WI
Madison,43.101665,-89.34748,Burger King,WI
Knoxville,36.000345,-83.776813,Burger King,TN
Sidney,40.287876,-84.18001,Taco Bell,OH
Sidney,40.287876,-84.18001,Taco Bell,OH
Glendale,33.511147,-112.185776,Burger King,AZ
Wilmington,39.746968,-75.574196,Taco Bell,DE
Peoria,33.679688,-112.278641,Burger King,AZ
South Gate,33.943924,-118.207039,Subway,CA
Phoenix,33.712433,-112.106651,Burger King,AZ
Tempe,33.363197,-111.929138,Burger King,AZ
Avondale,33.435005,-112.305725,Burger King,AZ
Avondale,33.435005,-112.305725,Burger King,AZ
Norwich,42.551292,-75.526063,Arbys,NY
Whitney Point,42.336496,-75.973877,Arbys,NY
Roy,41.164431,-112.025566,Arbys,UT
Roy,41.164431,-112.025566,Arbys,UT
Loves Park,42.338469,-89.018364,Subway,IL
Georgetown,38.209946,-84.559752,Subway,KY
Frankfort,38.201604,-84.832432,Subway,KY
Elizabethtown,37.706316,-85.844084,Subway,KY
Elizabethtown,37.675296,-85.902731,Subway,KY
Palmyra,38.406634,-86.108283,Subway,IN
Whiting,41.686841,-87.506784,Subway,IN
Brownsburg,39.854857,-86.393348,Subway,IN
Linton,39.035419,-87.163202,Subway,IN
Bloomington,39.160128,-86.5532,Subway,IN
Brazil,39.526025,-87.115038,Subway,IN
Warren,40.722261,-85.437314,Subway,IN
Fort Wayne,41.177339,-85.132197,Subway,IN
Fort Wayne,41.149584,-85.063694,Subway,IN
Kendallville,41.451595,-85.24731,Subway,IN
Plainfield,39.712064,-86.371583,Subway,IN
Kouts,41.3172,-87.025862,Subway,IN
Warsaw,41.238832,-85.852807,Subway,IN
Corydon,38.231329,-86.134105,Subway,IN
Martinsville,39.411042,-86.423384,Subway,IN
Chandler,33.30636,-111.88739700000001,Mcdonalds,AZ
Chandler,33.335611,-111.875062,Mcdonalds,AZ
Chandler,33.292273,-111.821769,Mcdonalds,AZ
Searcy,35.250402,-91.692595,Mcdonalds,AR
Searcy,35.250402,-91.692595,Mcdonalds,AR
Sheridan,34.292163,-92.398934,Mcdonalds,AR
Ozark,35.511333,-93.820867,Mcdonalds,AR
North Little Rock,34.820284,-92.234863,Mcdonalds,AR
Mena,34.586305,-94.224298,Mcdonalds,AR
Little Rock,34.766286,-92.387697,Mcdonalds,AR
Jacksonville,34.884885,-92.106681,Mcdonalds,AR
Jonesboro,35.821209,-90.685045,Mcdonalds,AR
Jonesboro,35.821209,-90.685045,Mcdonalds,AR
Hot Springs National Park,34.504005,-93.047227,Mcdonalds,AR
Hot Springs National Park,34.502954,-93.126241,Mcdonalds,AR
Fort Smith,35.296049,-94.387805,Mcdonalds,AR
Fort Smith,35.338205,-94.422687,Mcdonalds,AR
Grand Forks,47.932974,-97.082449,Burger King,ND
Saint Paul,44.956181,-93.113944,Burger King,MN
Grand Forks,47.889384,-97.073515,Burger King,ND
Saint Paul,45.017682,-92.984756,Burger King,MN
Duluth,46.804779,-92.068736,Burger King,MN
Minneapolis,45.181638,-93.319001,Burger King,MN
Saint Paul,44.89641,-93.08006,Burger King,MN
Saint Paul,44.89641,-93.08006,Burger King,MN
Lake City,44.458133,-92.279642,Burger King,MN
Lake City,44.458133,-92.279642,Burger King,MN
New Milford,40.932257,-74.025616,Burger King,NJ
New Milford,40.932257,-74.025616,Burger King,NJ
East Orange,40.762234,-74.225783,Burger King,NJ
Bound Brook,40.568219,-74.560327,Burger King,NJ
Sicklerville,39.736289,-75.00403,Burger King,NJ
Saddle Brook,40.897135,-74.098173,Burger King,NJ
Glassboro,39.711928,-75.110984,Burger King,NJ
Newark,40.778788,-74.176376,Burger King,NJ
Bergenfield,40.935779,-73.994958,Burger King,NJ
Bergenfield,40.935779,-73.994958,Burger King,NJ
Kearny,40.76027,-74.16027,Burger King,NJ
Pemberton,39.968484,-74.684743,Burger King,NJ
Raleigh,35.793537,-78.685647,Burger King,NC
Chapel Hill,35.936431,-79.039646,Burger King,NC
Raleigh,35.767375,-78.577141,Burger King,NC
Durham,35.966313,-78.961052,Burger King,NC
Gastonia,35.258163,-81.118964,Burger King,NC
Charlotte,35.224498,-80.84104,Burger King,NC
Roxboro,36.393545,-78.987733,Burger King,NC
Roxboro,36.393545,-78.987733,Burger King,NC
Kinston,35.270371,-77.609041,Burger King,NC
Greenville,35.608168,-77.394983,Burger King,NC
Garner,35.684426,-78.604506,Burger King,NC
Elizabeth City,36.29255,-76.246254,Burger King,NC
Roanoke Rapids,36.43392,-77.637523,Burger King,NC
Thomasville,35.918372,-80.057533,Burger King,NC
Tarboro,35.901494,-77.561319,Burger King,NC
Troy,40.044283,-84.213194,Arbys,OH
Syracuse,43.072836,-76.123167,Mcdonalds,NY
Windsor,41.870953,-72.660303,Subway,CT
New Haven,41.297848,-72.926922,Subway,CT
Prospect,41.510742,-72.983077,Subway,CT
Shelton,41.317359,-73.093551,Subway,CT
Bridgeport,41.222667,-73.218059,Subway,CT
Durham,41.484822,-72.681752,Subway,CT
Porterville,36.066242,-119.027457,Taco Bell,CA
Wisconsin Dells,43.627367,-89.773432,Subway,WI
Two Rivers,44.145747,-87.568211,Subway,WI
Ithaca,42.427536,-76.514032,Subway,NY
Hollis,40.719967,-73.7619,Subway,NY
Horseheads,42.176045,-76.836245,Subway,NY
Fulton,43.309285,-76.399598,Subway,NY
East Northport,40.867109,-73.321775,Subway,NY
East Syracuse,43.058833,-76.063904,Subway,NY
Sparks,39.575764,-119.739302,Taco Bell,NV
Zion,42.459821,-87.824702,Taco Bell,IL
Chico,39.727527,-121.806591,Taco Bell,CA
Escondido,33.137366,-117.052738,Taco Bell,CA
Richland Center,43.31852,-90.361043,Taco Bell,WI
Pasadena,34.146266,-118.11008,Taco Bell,CA
Bushnell,28.668327,-82.136985,Taco Bell,FL
West Berlin,39.805683,-74.93201,Taco Bell,NJ
Gladstone,45.377486,-122.603047,Taco Bell,OR
Bristol,41.697694,-72.903949,Subway,CT
Richmond,37.562465,-77.470487,Subway,VA
Upper Marlboro,38.759753,-76.808197,Subway,MD
Upper Marlboro,38.902002,-76.837682,Subway,MD
Columbia,39.171137,-76.864313,Subway,MD
Owings Mills,39.406774,-76.815798,Subway,MD
Westover,38.124444,-75.689687,Subway,MD
Nottingham,39.372607,-76.473885,Subway,MD
Hanover,39.1549,-76.715137,Subway,MD
Burlington,39.298222,-102.278255,Arbys,CO
Milroy,40.702948,-77.591804,Arbys,PA
Spirit Lake,43.40681,-95.126119,Arbys,IA
Minocqua,45.882641,-89.70316,Arbys,WI
Huntington Beach,33.729838,-117.990076,Arbys,CA
Huntington Beach,33.729838,-117.990076,Arbys,CA
Huntington Beach,33.729838,-117.990076,Arbys,CA
Tustin,33.738049,-117.82169,Arbys,CA
Leesburg,39.099042,-77.527803,Arbys,VA
Falls Church,38.874359,-77.226243,Arbys,VA
Columbus,32.54194,-84.949956,Arbys,GA
Allendale,42.96153,-85.888735,Subway,MI
Walden,41.561476999999996,-74.182425,Subway,NY
Watertown,43.974406,-75.909065,Subway,NY
Uniondale,40.700867,-73.593112,Subway,NY
Ticonderoga,43.85731,-73.438339,Subway,NY
Utica,43.093512,-75.273095,Subway,NY
Syracuse,43.048031,-76.197329,Subway,NY
Springville,42.50178,-78.689817,Subway,NY
Sherburne,42.683888,-75.50159,Subway,NY
Menomonie,44.857262,-91.928755,Subway,WI
Madison,43.04636,-89.476985,Subway,WI
Lancaster,42.846989,-90.71122,Subway,WI
Kewaskum,43.510255,-88.220859,Subway,WI
Kenosha,42.573003,-87.886194,Subway,WI
Crescent City,41.75281,-124.18705,Subway,CA
Crescent City,41.77449,-124.19004,Subway,CA
Jamestown,46.898997,-98.707788,Taco Bell,ND
Fredericksburg,38.332845,-77.478552,Arbys,VA
Augusta,44.314556,-69.800117,Arbys,ME
Beaufort,32.440815,-80.704213,Chick Fil-A,SC
El Paso,31.72652,-106.3021,Arbys,TX
Allen,33.112781,-96.659834,Subway,TX
Burke,38.79826,-77.3171,Chick Fil-A,VA
Burke,38.79826,-77.3171,Chick Fil-A,VA
Chantilly,38.887225,-77.445014,Arbys,VA
Cranberry,41.35025,-79.71524,Mcdonalds,PA
Blackwood,39.7593,-75.0477,Chick Fil-A,NJ
Clementon,39.803435,-75.041519,Burger King,NJ
Brookhaven,39.875819,-75.393101,Burger King,PA
Brookhaven,39.875819,-75.393101,Burger King,PA
Morganton,35.740121,-81.680584,Burger King,NC
Medina,41.154299,-81.862251,Arbys,OH
Jersey City,40.74369,-74.05073,Mcdonalds,NJ
Jersey City,40.74369,-74.05073,Mcdonalds,NJ
Akron,41.060732,-81.454372,Arbys,OH
Akron,41.10862,-81.567938,Arbys,OH
Duncan,34.51997,-97.97508,Chick Fil-A,OK
Chickasha,35.03107,-97.93412,Arbys,OK
Winston-Salem,36.07057,-80.339128,Arbys,NC
Ashland,38.480759,-82.643564,Burger King,KY
Dunn,35.32098,-78.63589,Burger King,NC
Bryson City,35.42326,-83.44696,Mcdonalds,NC
Clemmons,36.032338,-80.383008,Burger King,NC
Devils Lake,48.105495,-98.866309,Mcdonalds,ND
Candler,35.54718,-82.65563,Sonic,NC
LaGrange,33.033049,-85.071589,Subway,GA
Jonesboro,33.533212,-84.364175,Subway,GA
Clarkesville,34.647431,-83.450274,Subway,GA
Hiawassee,34.945653,-83.753249,Subway,GA
Hephzibah,33.334539,-82.095437,Subway,GA
Mocksville,35.919873,-80.586886,Arbys,NC
Lincolnton,35.478635,-81.218719,Arbys,NC
Lincolnton,35.478635,-81.218719,Arbys,NC
Lumberton,34.640502,-79.00121,Arbys,NC
Kernersville,36.107735,-80.097241,Arbys,NC
Kenly,35.582981,-78.147855,Arbys,NC
Lenoir,35.919487,-81.525067,Arbys,NC
Jonesville,36.23867,-80.813148,Arbys,NC
Greensboro,36.042836,-79.772959,Arbys,NC
Hickory,35.70752,-81.306293,Arbys,NC
Graham,36.057535,-79.399621,Arbys,NC
Graham,36.057535,-79.399621,Arbys,NC
Gillette,44.270759,-105.493915,Subway,WY
Butler,40.900311,-79.907738,Subway,PA
Johnstown,40.269558,-78.837952,Subway,PA
Circleville,39.59953,-82.930855,Subway,OH
Massillon,40.798609,-81.495046,Subway,OH
Dayton,39.819997,-84.194820000000007,Subway,OH
Cleveland,41.483808,-81.703064,Subway,OH
Newark,40.098418,-82.424455,Subway,OH
Columbus,39.927439,-82.965358,Subway,OH
Cleveland,41.500737,-81.678333,Subway,OH
Cambridge,40.007765,-81.577761,Subway,OH
Cambridge,40.007765,-81.577761,Subway,OH
Alexandria,31.277221,-92.451827,Subway,LA
Mansura,31.095575,-92.059438,Subway,LA
Ruston,32.523493,-92.628667,Subway,LA
Austin,30.418206,-97.704414,Chick Fil-A,TX
Allen,33.101734,-96.683104,Chick Fil-A,TX
Arlington,32.68012,-97.129091,Chick Fil-A,TX
Arlington,32.68012,-97.129091,Chick Fil-A,TX
Arlington,32.670056,-97.135188,Chick Fil-A,TX
Madison,36.302645,-86.694854,Chick Fil-A,TN
Knoxville,36.007399,-84.013858,Chick Fil-A,TN
Knoxville,35.962623,-83.916672,Chick Fil-A,TN
Kingsport,36.55093,-82.528571,Chick Fil-A,TN
Kingsport,36.5285,-82.519757,Chick Fil-A,TN
Knoxville,35.902794,-84.147835,Chick Fil-A,TN
Franklin,35.94416,-86.820688,Chick Fil-A,TN
Hermitage,36.191323,-86.614614,Chick Fil-A,TN
Chattanooga,35.023794,-85.15864,Chick Fil-A,TN
Lexington,33.995546,-81.224659,Chick Fil-A,SC
Greer,34.93929,-82.266398,Chick Fil-A,SC
Lancaster,34.708915,-80.778433,Chick Fil-A,SC
Berlin,39.917146,-78.952807,Subway,PA
Meyersdale,39.813648,-79.025995,Subway,PA
Canonsburg,40.259833,-80.181385,Subway,PA
Grindstone,40.012608,-79.864528,Subway,PA
Comanche,34.368761,-97.964192,Subway,OK
Davis,34.503655,-97.122739,Subway,OK
Roland,35.405023,-94.513263,Subway,OK
Spiro,35.24096,-94.625805,Subway,OK
Amory,33.981563,-88.475848,Subway,MS
Clarksdale,34.192695,-90.569899,Subway,MS
Calhoun City,33.854443,-89.323835,Subway,MS
Natchez,31.538791,-91.396388,Subway,MS
Pelahatchie,32.294165,-89.804231,Subway,MS
Hattiesburg,31.334809,-89.344316,Subway,MS
Rensselaer,42.634217,-73.746431,Subway,NY
Queensbury,43.297384,-73.675218,Subway,NY
Seattle,47.618607,-122.355528,Subway,WA
